Group No,Group Name,Name,Sub Name,Repeater Call Sign,Gateway Call Sign,Frequency,Dup,Offset,Mode,TONE,Repeater Tone,RPT1USE,Position,Latitude,Longitude,UTC Offset
32,AT-Repeaters,Giesshuebel,Giesshuebl,OE3XLU,,145.5875,DUP-,0.6,FM,OFF,88.5Hz,NO,Exact,48.09671,16.23893,+1:00
32,AT-Repeaters,Lichtenberg,Lichtenberg,OE5XLL,,145.6,DUP-,0.6,FM,OFF,88.5Hz,NO,Exact,48.38515,14.25445,+1:00
32,AT-Repeaters,Schoeckl,Schoeckl,OE6XAG,,145.6,DUP-,0.6,FM,TONE,103.5Hz,YES,Exact,47.1988534,15.4669424,+1:00
32,AT-Repeaters,Patscherkofel,Patsch,OE7XTI,,145.6125,DUP-,0.6,FM,TONE,77.0Hz,YES,Exact,47.208287,11.460929,+1:00
32,AT-Repeaters,Speiereck,St. Michael im Lungau,OE2XNL,,145.6125,DUP-,0.6,FM,OFF,88.5Hz,NO,Exact,47.127031,13.624763,+1:00
32,AT-Repeaters,Laaerberg Turm,Oberlaa Stadt,OE1XFW,,145.625,DUP-,0.6,FM,OFF,88.5Hz,NO,Exact,48.157173,16.396717,+1:00
32,AT-Repeaters,Magdalensberg,Ottmanach,OE8XMK,,145.625,DUP-,0.6,FM,TONE,88.5Hz,YES,Exact,46.728051,14.429426,+1:00
32,AT-Repeaters,Nebelstein,Hirschenwies,OE3XNR,,145.6375,DUP-,0.6,FM,TONE,88.5Hz,YES,Exact,48.672816,14.77828,+1:00
32,AT-Repeaters,Goldeck,Stockenboi,OE8XDK,,145.65,DUP-,0.6,FM,TONE,88.5Hz,YES,Exact,46.76179,13.45725,+1:00
32,AT-Repeaters,Goldeck,Stockenboi,OE8XOK,,145.65,DUP-,0.6,FM,OFF,88.5Hz,NO,Exact,46.76179,13.45725,+1:00
32,AT-Repeaters,Kaiserkogel,Wehrabach,OE3XPA,,145.65,DUP-,0.6,FM,TONE,162.2Hz,YES,Exact,48.05978708,15.53965351,+1:00
32,AT-Repeaters,Kitzsteinhorn,Kaprun,OE2XHL,,145.65,DUP-,0.6,FM,TONE,88.5Hz,YES,Exact,47.188104,12.687513,+1:00
32,AT-Repeaters,Rennfeld,Uebelstein,OE6XBG,,145.65,DUP-,0.6,FM,TONE,103.5Hz,YES,Exact,47.40554,15.35936,+1:00
32,AT-Repeaters,Vorderaelpele,Tisis,OE9XVI,,145.65,DUP-,0.6,FM,TONE,85.4Hz,YES,Exact,47.20918,9.591069,+1:00
32,AT-Repeaters,Gruenberg bei Silz,Obsteig,OE7XWH,,145.6625,DUP-,0.6,FM,OFF,88.5Hz,NO,Exact,47.28231,10.91478,+1:00
32,AT-Repeaters,Bruckerberg,Bruck am Ziller,OE7XZH,,145.675,DUP-,0.6,FM,TONE,77.0Hz,YES,Exact,47.381759,11.874329,+1:00
32,AT-Repeaters,Planai,Untertal,OE6XPG,,145.675,DUP-,0.6,FM,OFF,88.5Hz,NO,Exact,47.369088,13.726221,+1:00
32,AT-Repeaters,Gaisberg,Heuberg I,OE2XZR,,145.6875,DUP-,0.6,FM,TONE,88.5Hz,YES,Exact,47.805128,13.112955,+1:00
32,AT-Repeaters,Valluga,Kaisers,OE7XVR,,145.6875,DUP-,0.6,FM,TONE,77.0Hz,YES,Exact,47.15761255,10.21305436,+1:00
32,AT-Repeaters,Hahnenkamm,Hoefen,OE7XRT,,145.7,DUP-,0.6,FM,OFF,88.5Hz,NO,Exact,47.478174,10.641632,+1:00
32,AT-Repeaters,Hochstein,Patriasdorf,OE7XLI,,145.7,DUP-,0.6,FM,OFF,88.5Hz,NO,Exact,46.82166,12.70025,+1:00
32,AT-Repeaters,Lachtal,Schoenberg,OE6XDG,,145.7,DUP-,0.6,FM,OFF,88.5Hz,NO,Exact,47.25505,14.34483,+1:00
32,AT-Repeaters,Sandl,Stixendorf,OE3XSA,,145.7,DUP-,0.6,FM,TONE,162.2Hz,YES,Exact,48.43338,15.471389,+1:00
32,AT-Repeaters,Krippenstein,Obertraun,OE5XKL,,145.7125,DUP-,0.6,FM,OFF,88.5Hz,NO,Exact,47.524287,13.69208,+1:00
32,AT-Repeaters,Hohe Wand,Maiersdorf,OE3XHW,,145.725,DUP-,0.6,FM,OFF,88.5Hz,NO,Exact,47.8346,16.04605,+1:00
32,AT-Repeaters,Petzen,Unterort,OE8XPK,,145.7375,DUP-,0.6,FM,TONE,88.5Hz,YES,Exact,46.518507,14.772985,+1:00
32,AT-Repeaters,Exelberg,Weidlingbach,OE3XQA,,145.75,DUP-,0.6,FM,TONE,162.2Hz,YES,Exact,48.24876033,16.2440474,+1:00
32,AT-Repeaters,Gruenberg,Schlagen,OE5XGL,,145.75,DUP-,0.6,FM,TONE,123.0Hz,YES,Exact,47.8981318,13.8219805,+1:00
32,AT-Repeaters,Penkenjoch,Finkenberg,OE7XTT,,145.75,DUP-,0.6,FM,TONE,77.0Hz,YES,Exact,47.168667,11.8,+1:00
32,AT-Repeaters,Gerlitzen,Sauerwald,OE8XNK,,145.7625,DUP-,0.6,FM,OFF,88.5Hz,NO,Exact,46.695,13.914166999999999,+1:00
32,AT-Repeaters,Gernkogel,Plankenau,OE2XGR,,145.7625,DUP-,0.6,FM,TONE,88.5Hz,YES,Exact,47.30755,13.238225,+1:00
32,AT-Repeaters,Krahberg,Zams,OE7XTR,,145.7625,DUP-,0.6,FM,TONE,77.0Hz,YES,Exact,47.145919,10.626826,+1:00
32,AT-Repeaters,Brentenriegel,Sieggraben,OE4XUB,,145.775,DUP-,0.6,FM,TONE,97.4Hz,YES,Exact,47.659535,16.390592,+1:00
32,AT-Repeaters,Geiersberg,Geiersberg,OE5XUL,,145.775,DUP-,0.6,FM,OFF,88.5Hz,NO,Exact,48.20026,13.58142,+1:00
32,AT-Repeaters,Hohe Salve,Westendorf,OE7XKI,,145.775,DUP-,0.6,FM,OFF,88.5Hz,NO,Exact,47.465,12.204167,+1:00
32,AT-Repeaters,Frauenstaffel,Dietmanns,OE3XES,,145.7875,DUP-,0.6,FM,TONE,79.7Hz,YES,Exact,48.7931928,15.3499052,+1:00
32,AT-Repeaters,Wurmkogel Lift,Soelden,OE7XGI,,145.7875,DUP-,0.6,FM,OFF,88.5Hz,NO,Exact,46.88041,11.08384,+1:00
32,AT-Repeaters,Hollabrunn Stadt,Hollabrunn,OE3XTC,,438.075,DUP-,7.6,FM,TONE,162.2Hz,YES,Exact,48.56105797949712,16.06752060075255,+1:00
32,AT-Repeaters,Feuerkogel,Langwies,OE5XFK,,438.15,DUP-,7.6,FM,TONE,123.0Hz,YES,Exact,47.81588,13.721327,+1:00
32,AT-Repeaters,St. Bartholomae,St. Bartholomae,OE6XFD,,438.2,DUP-,7.6,FM,TONE,103.5Hz,YES,Exact,47.07115042743464,15.256529517436299,+1:00
32,AT-Repeaters,Ehrwald,Ehrwald,OE7XET,,438.225,DUP-,7.6,FM,TONE,136.5Hz,YES,Exact,47.412446419367086,10.916422724349717,+1:00
32,AT-Repeaters,FH Wr Neustadt,Wiener Neustadt,OE3XVJ,,438.225,DUP-,7.6,FM,TONE,162.2Hz,YES,Exact,47.839,16.24825,+1:00
32,AT-Repeaters,Hainfelder Huette,Hainfeld,OE3XOR,,438.3,DUP-,7.6,FM,TONE,162.2Hz,YES,Exact,48.0193515,15.753696399999999,+1:00
32,AT-Repeaters,Hochstein,Patriasdorf,OE7XLI,,438.3,DUP-,7.6,FM,TONE,77.0Hz,YES,Exact,46.82166,12.70025,+1:00
32,AT-Repeaters,Klippitztoerl,Leiwald,OE8XKP,,438.3,DUP-,7.6,FM,TONE,88.5Hz,YES,Exact,46.93639,14.67506,+1:00
32,AT-Repeaters,Porrtower,Favoriten,OE1XBA,,438.3125,DUP-,7.6,FM,TONE,162.2Hz,YES,Exact,48.16796379539441,16.38715982437134,+1:00
32,AT-Repeaters,Gaisberg,Heuberg I,OE2XZR,,438.4,DUP-,7.6,FM,TONE,88.5Hz,YES,Exact,47.805128,13.112955,+1:00
32,AT-Repeaters,Hohe Wand,Maiersdorf,OE3XTR,,438.4,DUP-,7.6,FM,TONE,162.2Hz,YES,Exact,47.8346,16.04605,+1:00
32,AT-Repeaters,Senftenbach/Wolfau,Furth,OE5XDN,,438.425,DUP-,7.6,FM,TONE,123.0Hz,YES,Exact,48.27889,13.40661,+1:00
32,AT-Repeaters,Hermannskogel,Grinzing,OE1XAT,,438.475,DUP-,7.6,FM,TONE,162.2Hz,YES,Exact,48.27041873853696,16.29355072975159,+1:00
32,AT-Repeaters,Hollbruck,Hollbruck,OE7XJH,,438.5,DUP-,7.6,FM,TONE,77.0Hz,YES,Exact,46.73872222,12.45377778,+1:00
32,AT-Repeaters,Gebhartsberg,Bregenz,OE9XFV,,438.525,DUP-,7.6,FM,TONE,85.4Hz,YES,Exact,47.49003,9.74761,+1:00
32,AT-Repeaters,Kindberg,Kindberg,OE6XME,,438.525,DUP-,7.6,FM,OFF,88.5Hz,NO,Exact,47.50585,15.44903,+1:00
32,AT-Repeaters,Villach LKH,Villach,OE8XVK,,438.55,DUP-,7.6,FM,TONE,88.5Hz,YES,Exact,46.61612,13.85777,+1:00
32,AT-Repeaters,Breitenstein,Kirchschlag,OE5XOL,,438.575,DUP-,7.6,FM,TONE,123.0Hz,YES,Exact,48.4152993,14.27429015,+1:00
32,AT-Repeaters,Magdalensberg,Ottmanach,OE8XMK,,438.575,DUP-,7.6,FM,TONE,88.5Hz,YES,Exact,46.728051,14.429426,+1:00
32,AT-Repeaters,Dornbirn Erlosenstrasse,Dornbirn,OE9XXD,,438.5875,DUP-,7.6,FM,TONE,85.4Hz,YES,Exact,47.4013,9.7227,+1:00
32,AT-Repeaters,Jauerling,Wiesmannsreith,OE3XWJ,,438.6,DUP-,7.6,FM,TONE,162.2Hz,YES,Exact,48.334521482895106,15.337681174278261,+1:00
32,AT-Repeaters,Weinbergerhaus,Kufstein,OE7XWT,,438.6,DUP-,7.6,FM,TONE,77.0Hz,YES,Exact,47.57772,12.20958,+1:00
32,AT-Repeaters,Iselsberg-Stronach,Iselsberg,OE7XLH,,438.625,DUP-,7.6,FM,OFF,88.5Hz,NO,Exact,46.83869,12.84436,+1:00
32,AT-Repeaters,Karren,Dornbirn,OE9XKV,,438.625,DUP-,7.6,FM,TONE,85.4Hz,YES,Exact,47.38802843464625,9.750838279724123,+1:00
32,AT-Repeaters,Stuhleck,Spital am Semmering,OE6XCD,,438.625,DUP-,7.6,FM,OFF,88.5Hz,NO,Exact,47.574167,15.79,+1:00
32,AT-Repeaters,Laaerberg Turm,Oberlaa Stadt,OE1XFW,,438.65,DUP-,7.6,FM,OFF,88.5Hz,NO,Exact,48.157173,16.396717,+1:00
32,AT-Repeaters,Lichtenberg,Lichtenberg,OE5XLL,,438.65,DUP-,7.6,FM,OFF,88.5Hz,NO,Exact,48.38515,14.25445,+1:00
32,AT-Repeaters,Rossegger Str/LWZ,Waidmannsdorf,OE8XCK,,438.65,DUP-,7.6,FM,OFF,88.5Hz,NO,Exact,46.61189,14.29801,+1:00
32,AT-Repeaters,Seegrube,Hoetting,OE7XLR,,438.65,DUP-,7.6,FM,TONE,77.0Hz,YES,Exact,47.305572,11.377861,+1:00
32,AT-Repeaters,Lachtal,Schoenberg,OE6XDG,,438.675,DUP-,7.6,FM,TONE,103.5Hz,YES,Exact,47.25505,14.34483,+1:00
32,AT-Repeaters,Hinteralm,Hintereben,OE3XPC,,438.7,DUP-,7.6,FM,TONE,162.2Hz,YES,Exact,47.97206,15.61039,+1:00
32,AT-Repeaters,Hunerkogel,Obertraun,OE5XDM,,438.725,DUP-,7.6,FM,OFF,88.5Hz,NO,Exact,47.46794155907106,13.626244068145754,+1:00
32,AT-Repeaters,Sonnenberg im Leithagebirge,Hornstein,OE4XSB,,438.725,DUP-,7.6,FM,TONE,97.4Hz,YES,Exact,47.875443581357835,16.475900647888768,+1:00
32,AT-Repeaters,Damberg,Unterwald,OE5XHO,,438.75,DUP-,7.6,FM,OFF,88.5Hz,NO,Exact,48.007363488562355,14.452160596847536,+1:00
32,AT-Repeaters,Hohe Wand,Maiersdorf,OE3XHW,,438.75,DUP-,7.6,FM,OFF,88.5Hz,NO,Exact,47.8346,16.04605,+1:00
32,AT-Repeaters,Ungerdorf,Ungerdorf,OE6XGD,,438.75,DUP-,7.6,FM,OFF,88.5Hz,NO,Exact,47.0938,15.69455,+1:00
32,AT-Repeaters,Grambach,Grambach,OE6XCG,,438.775,DUP-,7.6,FM,OFF,88.5Hz,NO,Exact,47.00617,15.4962,+1:00
32,AT-Repeaters,Linz Froschberg,Waldegg,OE5XBR,,438.775,DUP-,7.6,FM,OFF,88.5Hz,NO,Exact,48.28849,14.27855,+1:00
32,AT-Repeaters,Buschberg,Pyhra,OE3XNS,,438.8,DUP-,7.6,FM,OFF,88.5Hz,NO,Exact,48.577044,16.39555,+1:00
32,AT-Repeaters,Gruenberg,Schlagen,OE5XGL,,438.8,DUP-,7.6,FM,TONE,123.0Hz,YES,Exact,47.8981318,13.8219805,+1:00
32,AT-Repeaters,Zirbitzkogel,Granitzen,OE6XMD,,438.8,DUP-,7.6,FM,OFF,88.5Hz,NO,Exact,47.063469,14.567296,+1:00
32,AT-Repeaters,Duenserberg,Duenserberg,OE9XVV,,438.825,DUP-,7.6,FM,TONE,85.4Hz,YES,Exact,47.22903,9.737786,+1:00
32,AT-Repeaters,Hochkoenig Matrashaus,Muehlbach,OE2XHM,,438.825,DUP-,7.6,FM,OFF,88.5Hz,NO,Exact,47.420263,13.062393,+1:00
32,AT-Repeaters,Hutwisch,Hochneukirchen,OE3XCR,,438.8375,DUP-,7.6,FM,TONE,97.4Hz,YES,Exact,47.463146,16.22183,+1:00
32,AT-Repeaters,Hochkogel,Hochkoglberg,OE3XDA,,438.85,DUP-,7.6,FM,OFF,88.5Hz,NO,Exact,48.034278,14.951167,+1:00
32,AT-Repeaters,Nebelstein,Hirschenwies,OE3XNR,,438.875,DUP-,7.6,FM,OFF,88.5Hz,NO,Exact,48.672816,14.77828,+1:00
32,AT-Repeaters,Schoeckl,Schoeckl,OE6XAG,,438.875,DUP-,7.6,FM,TONE,103.5Hz,YES,Exact,47.1988534,15.4669424,+1:00
32,AT-Repeaters,Schoenjoechl,Fiss,OE7XOI,,438.875,DUP-,7.6,FM,OFF,88.5Hz,NO,Exact,47.07723879520141,10.59837341308594,+1:00
32,AT-Repeaters,Dobratsch,Bleiberg,OE8XFK,,438.9,DUP-,7.6,FM,TONE,88.5Hz,YES,Exact,46.603397,13.670989,+1:00
32,AT-Repeaters,Gallzein Kogelmoos,Gallzein,OE7XFI,,438.9,DUP-,7.6,FM,OFF,88.5Hz,NO,Exact,47.357,11.755,+1:00
32,AT-Repeaters,Sonntagberg,Sonntagberg,OE3XRB,,438.9,DUP-,7.6,FM,OFF,88.5Hz,NO,Exact,47.996538,14.764472,+1:00
32,AT-Repeaters,Gefrorene Wand,Finkenberg,OE7XGR,,438.925,DUP-,7.6,FM,TONE,77.0Hz,YES,Exact,47.064977,11.679196,+1:00
32,AT-Repeaters,Rittmannsberg,Endholz,OE3XSU,,438.925,DUP-,7.6,FM,OFF,88.5Hz,NO,Exact,48.158249,14.548894,+1:00
32,AT-Repeaters,Kahlenberg,Josefsdorf,OE1XUU,,438.95,DUP-,7.6,FM,TONE,162.2Hz,YES,Exact,48.276145,16.333217,+1:00
32,AT-Repeaters,Pfarrkirchen,Pfarrkirchen,OE5XDO,,438.95,DUP-,7.6,FM,OFF,88.5Hz,NO,Exact,48.502871999999996,13.825623,+1:00
32,AT-Repeaters,Ahorn,Mayrhofen,OE7XZT,,438.975,DUP-,7.6,FM,TONE,77.0Hz,YES,Exact,47.13717,11.86928,+1:00
32,AT-Repeaters,Jochgrabenberg,Rekawinkel,OE3XFW,,438.975,DUP-,7.6,FM,TONE,162.2Hz,YES,Exact,48.153067275070676,16.016285419464115,+1:00
32,AT-Repeaters,Speiereck,St. Michael im Lungau,OE2XNM,,438.975,DUP-,7.6,FM,OFF,88.5Hz,NO,Exact,47.127031,13.624763,+1:00
32,AT-Repeaters,Sternstein,Amesschlag,OE5XIM,,438.975,DUP-,7.6,FM,TONE,123.0Hz,YES,Exact,48.5599155,14.2690062,+1:00
32,AT-Repeaters,Stradner Kogel,Hochstraden,OE6XBF,,438.975,DUP-,7.6,FM,OFF,88.5Hz,NO,Exact,46.84521579785275,15.93197822570801,+1:00
32,AT-Repeaters,Gaberl/Wiedneralm,Salla,OE6XNG,,439.0,DUP-,7.6,FM,OFF,88.5Hz,NO,Exact,47.11856,14.93233,+1:00
32,AT-Repeaters,Goldeck,Stockenboi,OE8XDK,,439.0,DUP-,7.6,FM,TONE,88.5Hz,YES,Exact,46.76179,13.45725,+1:00
32,AT-Repeaters,Satzberg,Huetteldorf,OE1XFU,,439.0,DUP-,7.6,FM,TONE,162.2Hz,YES,Exact,48.21527259679771,16.2613320350647,+1:00
32,AT-Repeaters,Telfs Arzbergstrasse,Telfs,OE7XKG,,439.0,DUP-,7.6,FM,TONE,77.0Hz,YES,Exact,47.318046245342174,11.078756716842637,+1:00
32,AT-Repeaters,Frauenstaffel,Dietmanns,OE3XEU,,439.025,DUP-,7.6,FM,TONE,136.5Hz,YES,Exact,48.7931928,15.3499052,+1:00
32,AT-Repeaters,Giesshuebel,Giesshuebl,OE3XLU,,439.025,DUP-,7.6,FM,OFF,88.5Hz,NO,Exact,48.09671,16.23893,+1:00
32,AT-Repeaters,Harschbichl,St. Johann in Tirol,OE7XFJ,,439.025,DUP-,7.6,FM,TONE,77.0Hz,YES,Exact,47.48446,12.42795,+1:00
32,AT-Repeaters,Gerlitzen,Sauerwald,OE8XKQ,,439.05,DUP-,7.6,FM,TONE,88.5Hz,YES,Exact,46.695,13.914166999999999,+1:00
32,AT-Repeaters,Pichling,Pichling,OE6XPF,,439.05,DUP-,7.6,FM,OFF,88.5Hz,NO,Exact,46.91079,15.2744,+1:00
32,AT-Repeaters,Troppberg,Gablitz,OE3XEB,,439.05,DUP-,7.6,FM,OFF,88.5Hz,NO,Exact,48.223986,16.110077,+1:00
32,AT-Repeaters,Hochwechsel,Neustift am Alpenwald,OE3XWU,,439.075,DUP-,7.6,FM,TONE,162.2Hz,YES,Exact,47.530448,15.9145156,+1:00
32,AT-Repeaters,Petzen,Unterort,OE8XPK,,439.0875,DUP-,7.6,FM,OFF,88.5Hz,NO,Exact,46.518507,14.772985,+1:00
32,AT-Repeaters,Eisenerzer Reichenstein,Trofeng,OE6XRE,,439.1,DUP-,7.6,FM,TONE,103.5Hz,YES,Exact,47.500836856013976,14.932286739349367,+1:00
32,AT-Repeaters,Rangger Koepfl,Inzing,OE7XBI,,1259.2,DUP+,-35.0,FM,OFF,88.5Hz,NO,Exact,47.242985,11.181174,+1:00
32,AT-Repeaters,Wienerberg,Inzersdorf Stadt,OE1XQU,,1298.025,DUP-,28.0,FM,OFF,88.5Hz,NO,Exact,48.16803,16.3454,+1:00
32,AT-Repeaters,Dobl,Dobl,OE6XDF,,1298.05,DUP-,28.0,FM,OFF,88.5Hz,NO,Exact,46.94991,15.37989,+1:00
32,AT-Repeaters,Dobratsch,Bleiberg,OE8XFQ,,1298.15,DUP-,28.0,FM,OFF,88.5Hz,NO,Exact,46.603397,13.670989,+1:00
32,AT-Repeaters,Schoeckl,Schoeckl,OE6XDD,,1298.2,DUP-,28.0,FM,OFF,88.5Hz,NO,Exact,47.1988534,15.4669424,+1:00
32,AT-Repeaters,Hochwechsel,Neustift am Alpenwald,OE3XFC,,1298.225,DUP-,28.0,FM,OFF,88.5Hz,NO,Exact,47.530448,15.9145156,+1:00
32,AT-Repeaters,Laaerberg Wohntower,Oberlaa Stadt,OE1XCS,,1298.275,DUP-,28.0,FM,OFF,88.5Hz,NO,Exact,48.1664,16.3888,+1:00
32,AT-Repeaters,Gaisberg,Heuberg I,OE2XZR,,1298.375,DUP-,28.0,FM,OFF,88.5Hz,NO,Exact,47.805128,13.112955,+1:00
32,AT-Repeaters,Hinteralm,Hintereben,OE3XPC,,1298.5,DUP-,28.0,FM,OFF,88.5Hz,NO,Exact,47.97206,15.61039,+1:00
32,AT-Repeaters,Rangger Koepfl,Inzing,OE7XBI,,2401.9,DUP+,-48.0,FM,OFF,88.5Hz,NO,Exact,47.242985,11.181174,+1:00
32,AT-Repeaters,Wienerberg,Inzersdorf Stadt,OE1XQU,,2449.6,DUP-,49.0,FM,OFF,88.5Hz,NO,Exact,48.16803,16.3454,+1:00
32,AT-DSTAR,Hochkogel,Hochkoglberg,OE3XDA,OE3XDA G,145.575,DUP-,0.6,DV,OFF,88.5Hz,YES,Exact,48.034278,14.951167,+1:00
32,AT-DSTAR,Wien AKH,Alsergrund,OE1XDS,OE1XDS G,145.575,DUP-,0.6,DV,OFF,88.5Hz,YES,Exact,48.22075,16.34684,+1:00
32,AT-DSTAR,Dobl,Dobl,OE6XDF,OE6XDF G,145.6375,DUP-,0.6,DV,OFF,88.5Hz,YES,Exact,46.94991,15.37989,+1:00
32,AT-DSTAR,Hochstein,Patriasdorf,OE7XLI,OE7XLI G,145.725,DUP-,0.6,DV,OFF,88.5Hz,YES,Exact,46.82166,12.70025,+1:00
32,AT-DSTAR,Hoadl,Grinzens,OE7XIH,OE7XIH G,438.05,DUP-,7.6,DV,OFF,88.5Hz,YES,Exact,47.183272,11.281548,+1:00
32,AT-DSTAR,Rofan Rosskogel,Muenster,OE7XXR,OE7XXR G,438.2,DUP-,7.6,DV,OFF,88.5Hz,YES,Exact,47.46738,11.82695,+1:00
32,AT-DSTAR,Vorderaelpele,Tisis,OE9XVI,OE9XVI G,438.2,DUP-,7.6,DV,OFF,88.5Hz,YES,Exact,47.20918,9.591069,+1:00
32,AT-DSTAR,FH Wr Neustadt,Wiener Neustadt,OE3XVJ,OE3XVJ G,438.225,DUP-,7.6,DV,OFF,88.5Hz,YES,Exact,47.839,16.24825,+1:00
32,AT-DSTAR,Gruenberg,Schlagen,OE5XGL,OE5XGL G,438.2625,DUP-,7.6,DV,OFF,88.5Hz,YES,Exact,47.8981318,13.8219805,+1:00
32,AT-DSTAR,Nebelstein,Hirschenwies,OE3XNR,OE3XNR G,438.325,DUP-,7.6,DV,OFF,88.5Hz,YES,Exact,48.672816,14.77828,+1:00
32,AT-DSTAR,Poschenhof,Wagrain,OE5XTP,OE5XTP G,438.35,DUP-,7.6,DV,OFF,88.5Hz,YES,Exact,48.02072354491044,13.643034696578981,+1:00
32,AT-DSTAR,Sonnenberg im Leithagebirge,Hornstein,OE4XSB,OE4XSB G,438.3625,DUP-,7.6,DV,OFF,88.5Hz,YES,Exact,47.875443581357835,16.475900647888768,+1:00
32,AT-DSTAR,Hochkogel,Hochkoglberg,OE3XDA,OE3XDA G,438.4,DUP-,7.6,DV,OFF,88.5Hz,YES,Exact,48.034278,14.951167,+1:00
32,AT-DSTAR,Magdalensberg,Ottmanach,OE8XMK,OE8XMK G,438.425,DUP-,7.6,DV,OFF,88.5Hz,YES,Exact,46.728051,14.429426,+1:00
32,AT-DSTAR,Senftenbach/Wolfau,Furth,OE5XDN,OE5XDN G,438.425,DUP-,7.6,DV,OFF,88.5Hz,YES,Exact,48.27889,13.40661,+1:00
32,AT-DSTAR,Kaiserkogel,Wehrabach,OE3XPA,OE3XPA G,438.45,DUP-,7.6,DV,OFF,88.5Hz,YES,Exact,48.05978708,15.53965351,+1:00
32,AT-DSTAR,Krahberg,Zams,OE7XKH,OE7XKH G,438.5,DUP-,7.6,DV,OFF,88.5Hz,YES,Exact,47.145919,10.626826,+1:00
32,AT-DSTAR,Krippenstein,Obertraun,OE5XKL,OE5XKL G,438.5,DUP-,7.6,DV,OFF,88.5Hz,YES,Exact,47.524287,13.69208,+1:00
32,AT-DSTAR,Breitenstein,Kirchschlag,OE5XOL,OE5XOL G,438.525,DUP-,7.6,DV,OFF,88.5Hz,YES,Exact,48.4152993,14.27429015,+1:00
32,AT-DSTAR,Gernkogel,Plankenau,OE2XGR,OE2XGR G,438.525,DUP-,7.6,DV,OFF,88.5Hz,YES,Exact,47.30755,13.238225,+1:00
32,AT-DSTAR,Wien AKH,Alsergrund,OE1XDS,OE1XDS G,438.525,DUP-,7.6,DV,OFF,88.5Hz,YES,Exact,48.22075,16.34684,+1:00
32,AT-DSTAR,Villach LKH,Villach,OE8XVK,OE8XVK G,438.55,DUP-,7.6,DV,OFF,88.5Hz,YES,Exact,46.61612,13.85777,+1:00
32,AT-DSTAR,Iselsberg-Stronach,Iselsberg,OE7XLH,OE7XLH G,438.625,DUP-,7.6,DV,OFF,88.5Hz,YES,Exact,46.83869,12.84436,+1:00
32,AT-DSTAR,Petzen,Unterort,OE8XPK,OE8XPK G,438.7,DUP-,7.6,DV,OFF,88.5Hz,YES,Exact,46.518507,14.772985,+1:00
32,AT-DSTAR,Woelfnitz,Lendorf,OE8XWZ,OE8XWZ G,438.775,DUP-,7.6,DV,OFF,88.5Hz,YES,Exact,46.66441,14.25703,+1:00
32,AT-DSTAR,Wienerberg,Inzersdorf Stadt,OE1XQU,OE1XQU G,438.825,DUP-,7.6,DV,OFF,88.5Hz,YES,Exact,48.16803,16.3454,+1:00
32,AT-DSTAR,Pyramidenkogel,Plescherken,OE8XKK,OE8XKK G,438.8375,DUP-,7.6,DV,OFF,88.5Hz,YES,Exact,46.608914,14.14479,+1:00
32,AT-DSTAR,Gaisberg,Heuberg I,OE2XZR,OE2XZR G,439.0,DUP-,7.6,DV,OFF,88.5Hz,YES,Exact,47.805128,13.112955,+1:00
32,AT-DSTAR,Sternstein,Amesschlag,OE5XIM,OE5XIM G,439.0625,DUP-,7.6,DV,OFF,88.5Hz,YES,Exact,48.5599155,14.2690062,+1:00
32,AT-DSTAR,Hochwechsel,Neustift am Alpenwald,OE3XWU,OE3XWU G,439.075,DUP-,7.6,DV,OFF,88.5Hz,YES,Exact,47.530448,15.9145156,+1:00
32,AT-DSTAR,Obtarrenz,Tarrenz,OE7XOT,OE7XOT G,439.1,DUP-,7.6,DV,OFF,88.5Hz,YES,Exact,47.279243560012524,10.767288208007812,+1:00
32,AT-DSTAR,Wien AKH,Alsergrund,OE1XDS,OE1XDS G,1298.65,DUP-,28.0,DV,OFF,88.5Hz,YES,Exact,48.22075,16.34684,+1:00
33,SK-Repeaters,Bratislava - Kamzik,,OM0OVV,,145.6,DUP-,0.6,FM,TONE,77.0Hz,YES,Approximate,48.1875,17.125,+1:00
33,SK-Repeaters,Stara Lubovna - hrad,,OM0OUI,,145.6,DUP-,0.6,FM,OFF,88.5Hz,NO,Approximate,49.3125,20.70833,+1:00
33,SK-Repeaters,Makovica,,OM0OVT,,145.65,DUP-,0.6,FM,TONE,88.5Hz,YES,Approximate,48.85417,21.45833,+1:00
33,SK-Repeaters,Rudnik - Branisko,,OM0OVY,,145.675,DUP-,0.6,FM,OFF,88.5Hz,NO,Approximate,49.02083,20.875,+1:00
33,SK-Repeaters,Krizava (Velka luka),,OM0OVU,,145.725,DUP-,0.6,FM,TONE,67.0Hz,YES,Approximate,49.10417,18.79167,+1:00
33,SK-Repeaters,Kralova hola,,OM0OVR,,145.75,DUP-,0.6,FM,TONE,88.5Hz,YES,Approximate,48.89583,20.125,+1:00
33,SK-Repeaters,Velka Javorina,,OM0OVQ,,145.7625,DUP-,0.6,FM,TONE,77.0Hz,YES,Approximate,48.85417,17.70833,+1:00
33,SK-Repeaters,Skalka - Kremnicke vrchy,,OM0OVW,,145.775,DUP-,0.6,FM,OFF,88.5Hz,NO,Approximate,48.72917,18.95833,+1:00
33,SK-Repeaters,Kosice,,OM0ODM,,438.225,DUP-,7.6,FM,OFF,88.5Hz,NO,Approximate,48.72917,21.20833,+1:00
33,SK-Repeaters,Cadca - Drahosanka,,OM0OAC,,438.225,DUP-,7.6,FM,OFF,88.5Hz,NO,Approximate,49.4375,18.79167,+1:00
33,SK-Repeaters,Kojsovska hola,,OM0ODK,,438.25,DUP-,7.6,FM,OFF,88.5Hz,NO,Approximate,48.77083,20.95833,+1:00
33,SK-Repeaters,Vysne Hagy,,OM0ODP,,438.275,DUP-,7.6,FM,OFF,88.5Hz,NO,Approximate,49.14583,20.04167,+1:00
33,SK-Repeaters,Kubinska hola,,OM0OAD,,438.55,DUP-,7.6,FM,OFF,88.5Hz,NO,Approximate,49.27083,19.20833,+1:00
33,SK-Repeaters,Velka Javorina,,OM0OUJ,,438.875,DUP-,7.6,FM,TONE,77.0Hz,YES,Approximate,48.85417,17.70833,+1:00
33,SK-Repeaters,Zilina - Hradisko,,OM0OAE,,438.925,DUP-,7.6,FM,OFF,88.5Hz,NO,Approximate,49.22917,18.70833,+1:00
33,SK-Repeaters,Snina - Sterbna,,OM0OUW,,438.975,DUP-,7.6,FM,OFF,88.5Hz,NO,Approximate,48.97917,22.20833,+1:00
33,SK-Repeaters,Stara Lubovna - hrad,,OM0OUS,,439.025,DUP-,7.6,FM,OFF,88.5Hz,NO,Approximate,49.3125,20.70833,+1:00
33,SK-Repeaters,Presov - Straz,,OM0OUP,,439.1,DUP-,7.6,FM,TONE,88.5Hz,YES,Approximate,49.02083,21.20833,+1:00
33,SK-Repeaters,Krizava (Vela luka),,OM0OUA,,439.1375,DUP-,7.6,FM,OFF,88.5Hz,NO,Approximate,49.10417,18.79167,+1:00
33,SK-Repeaters,Sitno,,OM0OUX,,439.15,DUP-,7.6,FM,TONE,77.0Hz,YES,Approximate,48.39583,18.875,+1:00
33,SK-Repeaters,Galanta,,OM0OUG,,439.175,DUP-,7.6,FM,TONE,88.5Hz,YES,Approximate,48.1875,17.70833,+1:00
33,SK-Repeaters,Konus,,OM0ODT,,439.175,DUP-,7.6,FM,TONE,88.5Hz,YES,Approximate,48.77083,22.29167,+1:00
33,SK-Repeaters,Chata pod Klacianskou Magurou,,OM0OUV,,439.2,DUP-,7.6,FM,TONE,100.0Hz,YES,Approximate,49.14583,18.95833,+1:00
33,SK-Repeaters,Nove Zamky,,OM0OET,,439.225,DUP-,7.6,FM,TONE,77.0Hz,YES,Approximate,47.97917,18.125,+1:00
33,SK-Repeaters,Banska Bystrica - Vartovka,,OM0OUH,,439.275,DUP-,7.6,FM,OFF,88.5Hz,NO,Approximate,48.72917,19.125,+1:00
33,SK-Repeaters,Velky Inovec,,OM0OUN,,439.3,DUP-,7.6,FM,TONE,88.5Hz,YES,Approximate,48.39583,18.54167,+1:00
33,SK-Repeaters,Bratislava - Kamzik,,OM0OUB,,439.325,DUP-,7.6,FM,TONE,77.0Hz,YES,Approximate,48.1875,17.125,+1:00
33,SK-Repeaters,Trnava,,OM0OUR,,439.475,DUP-,7.6,FM,TONE,88.5Hz,YES,Approximate,48.35417,17.54167,+1:00
33,SK-DSTAR,Bratislava - Dubravka,,OM0ODB,OM0ODB G,438.325,DUP-,7.6,DV,OFF,88.5Hz,YES,Approximate,48.1875,17.04167,+1:00
33,SK-DSTAR,Kubinska hola,,OM0OAD,OM0OAD G,438.55,DUP-,7.6,DV,OFF,88.5Hz,YES,Approximate,49.27083,19.20833,+1:00
33,SK-DSTAR,Zilina - mesto,,OM0OAA,OM0OAA G,438.625,DUP-,7.6,DV,OFF,88.5Hz,YES,Approximate,49.22917,18.70833,+1:00
33,SK-DSTAR,Zilina - Hradisko,,OM0OAE,OM0OAE G,438.925,DUP-,7.6,DV,OFF,88.5Hz,YES,Approximate,49.22917,18.70833,+1:00
33,SK-DSTAR,Lucenec,,OM0OUL,OM0OUL G,438.975,DUP-,7.6,DV,OFF,88.5Hz,YES,Approximate,48.35417,19.625,+1:00
34,SG-Repeaters,Singapore East,Singapore East,9V1RMP,,438.425,DUP-,7.6,FM,TONE,156.7Hz,YES,Exact,1.3095,103.9335,+8:00
34,SG-Repeaters,Singapore West,Singapore West,9V1RS,,145.625,DUP-,0.6,FM,TONE,156.7Hz,YES,Exact,1.318,103.7563,+8:00
