Group No,Group Name,Name,Sub Name,Repeater Call Sign,Gateway Call Sign,Frequency,Dup,Offset,Mode,TONE,Repeater Tone,RPT1USE,Position,Latitude,Longitude,UTC Offset
70,SOTA-Summits,OE/NO-302 Absand,Niederoes 896m,,,,,,GPS,,,,Exact,47.755,15.9592,+1:00
70,SOTA-Summits,OE/TI-830 Acherk,Tirol 3007m,,,,,,GPS,,,,Exact,47.1892,10.9567,+1:00
70,SOTA-Summits,OE/SB-442 Achhor,Salzburg 1316m,,,,,,GPS,,,,Exact,47.6531,12.7586,+1:00
70,SOTA-Summits,OE/TI-671 Achlei,Tirol 1229m,,,,,,GPS,,,,Exact,47.5328,12.2042,+1:00
70,SOTA-Summits,OE/ST-350 Achner,Steierma 1824m,,,,,,GPS,,,,Exact,47.4819,14.7592,+1:00
70,SOTA-Summits,OE/TL-014 Achsel,Tirol 2020m,,,,,,GPS,,,,Exact,47.4258,10.7433,+1:00
70,SOTA-Summits,OE/KT-092 Ackerl,Kaernten 2040m,,,,,,GPS,,,,Exact,47.0456,14.1256,+1:00
70,SOTA-Summits,OE/TI-317 Ackerl,Tirol 2329m,,,,,,GPS,,,,Exact,47.5592,12.3469,+1:00
70,SOTA-Summits,OE/TI-468 Aggens,Tirol 1986m,,,,,,GPS,,,,Exact,47.5369,10.5572,+1:00
70,SOTA-Summits,OE/TI-070 Ahorns,Tirol 2973m,,,,,,GPS,,,,Exact,47.13,11.9178,+1:00
70,SOTA-Summits,OE/ST-439 Ahrnsp,Steierma 2014m,,,,,,GPS,,,,Exact,47.3476,13.9915,+1:00
70,SOTA-Summits,OE/ST-468 Aibelh,Steierma 1449m,,,,,,GPS,,,,Exact,47.4133,15.5821,+1:00
70,SOTA-Summits,OE/SB-119 Aineck,Salzburg 2210m,,,,,,GPS,,,,Exact,47.0556,13.6378,+1:00
70,SOTA-Summits,OE/ST-571 Akogel,Steierma 1190m,,,,,,GPS,,,,Exact,47.6768,14.8053,+1:00
70,SOTA-Summits,OE/TI-817 Alkuse,Tirol 3053m,,,,,,GPS,,,,Exact,46.9175,12.7317,+1:00
70,SOTA-Summits,OE/NO-239 Almesb,Niederoes 1079m,,,,,,GPS,,,,Exact,47.9356,15.9206,+1:00
70,SOTA-Summits,OE/OO-193 Almkog,Oberoeste 2116m,,,,,,GPS,,,,Exact,47.6194,14.0931,+1:00
70,SOTA-Summits,OE/OO-247 Almkog,Oberoeste 1513m,,,,,,GPS,,,,Exact,47.8256,14.5647,+1:00
70,SOTA-Summits,OE/ST-529 Almmau,Steierma 1764m,,,,,,GPS,,,,Exact,47.6249,14.7167,+1:00
70,SOTA-Summits,OE/OO-300 Alpenb,Oberoeste 973m,,,,,,GPS,,,,Exact,47.9225,13.6642,+1:00
70,SOTA-Summits,OE/TI-655 Alpkop,Tirol 1802m,,,,,,GPS,,,,Exact,47.4153,10.765,+1:00
70,SOTA-Summits,OE/NO-215 Alpl,Niederoes 1405m,,,,,,GPS,,,,Exact,47.8483,14.845,+1:00
70,SOTA-Summits,OE/TI-351 Alples,Tirol 2258m,,,,,,GPS,,,,Exact,47.3167,10.7733,+1:00
70,SOTA-Summits,OE/TI-939 Alples,Tirol 2648m,,,,,,GPS,,,,Exact,47.1967,10.3433,+1:00
70,SOTA-Summits,OE/TI-578 Alples,Tirol 3149m,,,,,,GPS,,,,Exact,46.9578,12.2603,+1:00
70,SOTA-Summits,OE/OO-254 Alpste,Oberoeste 1443m,,,,,,GPS,,,,Exact,47.7942,14.4339,+1:00
70,SOTA-Summits,OE/KT-266 Altenb,Kaernten 1288m,,,,,,GPS,,,,Exact,46.6824,13.6157,+1:00
70,SOTA-Summits,OE/ST-431 Amachk,Steierma 2312m,,,,,,GPS,,,,Exact,47.3528,14.5381,+1:00
70,SOTA-Summits,OE/OO-097 Ameisb,Oberoeste 941m,,,,,,GPS,,,,Exact,48.555,13.8322,+1:00
70,SOTA-Summits,OE/SB-439 Ameise,Salzburg 1351m,,,,,,GPS,,,,Exact,47.6212,13.2796,+1:00
70,SOTA-Summits,OE/SB-418 Ameisn,Salzburg 1925m,,,,,,GPS,,,,Exact,47.5857,12.7856,+1:00
70,SOTA-Summits,OE/ST-067 Amerin,Steierma 2187m,,,,,,GPS,,,,Exact,47.0711,14.8083,+1:00
70,SOTA-Summits,OE/NO-237 Anestb,Niederoes 1092m,,,,,,GPS,,,,Exact,47.9703,15.4914,+1:00
70,SOTA-Summits,OE/OO-448 Angelm,Oberoeste 2103m,,,,,,GPS,,,,Exact,47.7342,14.1063,+1:00
70,SOTA-Summits,OE/ST-435 Angerk,Steierma 2114m,,,,,,GPS,,,,Exact,47.6179,14.2283,+1:00
70,SOTA-Summits,OE/KT-008 Ankoge,Kaernten 3252m,,,,,,GPS,,,,Exact,47.0511,13.2486,+1:00
70,SOTA-Summits,OE/OO-356 Annasb,Oberoeste 1172m,,,,,,GPS,,,,Exact,47.8694,14.2972,+1:00
70,SOTA-Summits,OE/NO-204 Anning,Niederoes 675m,,,,,,GPS,,,,Exact,48.0472,16.2442,+1:00
70,SOTA-Summits,OE/KT-363 Aplits,Kaernten 1221m,,,,,,GPS,,,,Exact,46.8009,14.0525,+1:00
70,SOTA-Summits,OE/VB-526 Ardetz,Vorarlbe 631m,,,,,,GPS,,,,Exact,47.2517,9.6025,+1:00
70,SOTA-Summits,OE/SB-456 Arlste,Salzburg 913m,,,,,,GPS,,,,Exact,47.5572,13.3261,+1:00
70,SOTA-Summits,OE/TI-854 Arnhoe,Tirol 2793m,,,,,,GPS,,,,Exact,46.8456,12.5045,+1:00
70,SOTA-Summits,OE/TL-003 Arnpla,Tirol 2171m,,,,,,GPS,,,,Exact,47.3925,11.2092,+1:00
70,SOTA-Summits,OE/TL-037 Arntal,Tirol 1529m,,,,,,GPS,,,,Exact,47.3942,11.2467,+1:00
70,SOTA-Summits,OE/TI-803 Arvent,Tirol 3083m,,,,,,GPS,,,,Exact,47.0083,12.1233,+1:00
70,SOTA-Summits,OE/TL-044 Aschau,Tirol 1282m,,,,,,GPS,,,,Exact,47.5175,11.8775,+1:00
70,SOTA-Summits,OE/SB-430 Ascheg,Salzburg 1622m,,,,,,GPS,,,,Exact,47.3699,13.2913,+1:00
70,SOTA-Summits,OE/TI-990 Aserle,Tirol 2337m,,,,,,GPS,,,,Exact,47.34,10.7567,+1:00
70,SOTA-Summits,OE/SB-192 Asitzk,Salzburg 1914m,,,,,,GPS,,,,Exact,47.4028,12.7025,+1:00
70,SOTA-Summits,OE/KT-305 Astrom,Kaernten 2811m,,,,,,GPS,,,,Exact,46.9907,13.0831,+1:00
70,SOTA-Summits,OE/ST-551 Augste,Steierma 1370m,,,,,,GPS,,,,Exact,47.6034,14.5468,+1:00
70,SOTA-Summits,OE/TI-863 August,Tirol 2881m,,,,,,GPS,,,,Exact,47.0775,10.2408,+1:00
70,SOTA-Summits,OE/OO-445 August,Oberoeste 1335m,,,,,,GPS,,,,Exact,47.7342,14.3919,+1:00
70,SOTA-Summits,OE/TI-643 B'schi,Tirol 1998m,,,,,,GPS,,,,Exact,47.4878,10.4406,+1:00
70,SOTA-Summits,OE/KT-388 Baba,Kaernten 2127m,,,,,,GPS,,,,Exact,46.3794,14.556,+1:00
70,SOTA-Summits,OM/KE-002 Babina,Kosicky 1278m,,,,,,GPS,,,,Exact,48.8302,20.4627,+1:00
70,SOTA-Summits,OM/PO-024 Bachur,Presovsk 1081m,,,,,,GPS,,,,Exact,49.0905,20.9228,+1:00
70,SOTA-Summits,OE/NO-279 Badner,Niederoes 582m,,,,,,GPS,,,,Exact,48.0078,16.1847,+1:00
70,SOTA-Summits,OE/ST-556 Baierh,Steierma 1335m,,,,,,GPS,,,,Exact,47.4441,14.6992,+1:00
70,SOTA-Summits,OE/TI-151 Ballun,Tirol 2671m,,,,,,GPS,,,,Exact,46.9553,10.135,+1:00
70,SOTA-Summits,OE/KT-384 Bannwa,Kaernten 701m,,,,,,GPS,,,,Exact,46.6461,14.1561,+1:00
70,SOTA-Summits,OM/ZA-004 Baniko,Zilinsky 2178m,,,,,,GPS,,,,Exact,49.1981,19.7098,+1:00
70,SOTA-Summits,OM/ZA-003 Barane,Zilinsky 2184m,,,,,,GPS,,,,Exact,49.1734,19.741,+1:00
70,SOTA-Summits,OM/PO-077 Barvie,Presovsk 591m,,,,,,GPS,,,,Exact,49.3068,21.1671,+1:00
70,SOTA-Summits,OM/TN-032 Baske,Trencian 954m,,,,,,GPS,,,,Exact,48.8801,18.2579,+1:00
70,SOTA-Summits,OE/ST-532 Bauern,Steierma 1723m,,,,,,GPS,,,,Exact,47.1988,14.3801,+1:00
70,SOTA-Summits,OE/ST-021 Baulei,Steierma 2424m,,,,,,GPS,,,,Exact,47.2711,13.9692,+1:00
70,SOTA-Summits,OE/NO-292 Baumec,Niederoes 972m,,,,,,GPS,,,,Exact,47.7964,15.7297,+1:00
70,SOTA-Summits,OE/SB-355 Baumga,Salzburg 2392m,,,,,,GPS,,,,Exact,47.2769,12.1469,+1:00
70,SOTA-Summits,OE/SB-024 Baumga,Salzburg 2623m,,,,,,GPS,,,,Exact,47.1392,12.8439,+1:00
70,SOTA-Summits,OM/PO-084 Bana,Presovsk 523m,,,,,,GPS,,,,Exact,49.2149,21.5949,+1:00
70,SOTA-Summits,OE/OO-389 Beerwu,Oberoeste 2006m,,,,,,GPS,,,,Exact,47.5247,13.5653,+1:00
70,SOTA-Summits,OE/TI-265 Bentls,Tirol 2436m,,,,,,GPS,,,,Exact,47.1033,11.5222,+1:00
70,SOTA-Summits,OE/SB-152 Benzeg,Salzburg 2075m,,,,,,GPS,,,,Exact,47.2647,13.395,+1:00
70,SOTA-Summits,OE/TI-899 Berger,Tirol 2656m,,,,,,GPS,,,,Exact,46.9944,12.3822,+1:00
70,SOTA-Summits,OE/SB-260 Bergko,Salzburg 1480m,,,,,,GPS,,,,Exact,47.6894,13.2731,+1:00
70,SOTA-Summits,OE/OO-030 Bergwe,Oberoeste 1781m,,,,,,GPS,,,,Exact,47.6761,13.5089,+1:00
70,SOTA-Summits,OE/TI-916 Bergwe,Tirol 2728m,,,,,,GPS,,,,Exact,47.225,10.6092,+1:00
70,SOTA-Summits,OE/SB-077 Bernko,Salzburg 2325m,,,,,,GPS,,,,Exact,47.2489,13.0433,+1:00
70,SOTA-Summits,OE/ST-415 Bernta,Steierma 1177m,,,,,,GPS,,,,Exact,47.3123,15.2648,+1:00
70,SOTA-Summits,OE/OO-418 Bertel,Oberoeste 922m,,,,,,GPS,,,,Exact,47.8983,14.5783,+1:00
70,SOTA-Summits,OE/VB-260 Bettle,Vorarlbe 2272m,,,,,,GPS,,,,Exact,47.2117,9.9717,+1:00
70,SOTA-Summits,OM/BB-005 Benusk,Banskoby 1542m,,,,,,GPS,,,,Exact,48.8803,19.7328,+1:00
70,SOTA-Summits,OE/NO-284 Bichle,Niederoes 1378m,,,,,,GPS,,,,Exact,47.8367,15.3375,+1:00
70,SOTA-Summits,OE/NO-262 Bichlh,Niederoes 955m,,,,,,GPS,,,,Exact,47.8726,15.0949,+1:00
70,SOTA-Summits,OE/TI-131 Birkka,Tirol 2749m,,,,,,GPS,,,,Exact,47.4114,11.4375,+1:00
70,SOTA-Summits,OE/SB-023 Birnho,Salzburg 2634m,,,,,,GPS,,,,Exact,47.4747,12.7339,+1:00
70,SOTA-Summits,OE/SB-207 Bischl,Salzburg 1834m,,,,,,GPS,,,,Exact,47.4628,13.2983,+1:00
70,SOTA-Summits,OE/TI-413 Bischo,Tirol 2127m,,,,,,GPS,,,,Exact,47.4053,12.5117,+1:00
70,SOTA-Summits,OE/TI-920 Bittri,Tirol 2698m,,,,,,GPS,,,,Exact,47.2167,10.5442,+1:00
70,SOTA-Summits,OE/TI-881 Blanka,Tirol 2822m,,,,,,GPS,,,,Exact,47.175,10.5125,+1:00
70,SOTA-Summits,OE/VB-227 Blanku,Vorarlbe 2334m,,,,,,GPS,,,,Exact,47.0925,9.6794,+1:00
70,SOTA-Summits,OE/ST-123 Blasen,Steierma 1969m,,,,,,GPS,,,,Exact,47.4994,14.6189,+1:00
70,SOTA-Summits,OE/ST-452 Blasen,Steierma 1602m,,,,,,GPS,,,,Exact,47.112,14.3071,+1:00
70,SOTA-Summits,OE/TI-877 Blauta,Tirol 2834m,,,,,,GPS,,,,Exact,47.0017,10.4817,+1:00
70,SOTA-Summits,OE/SB-253 Bleckw,Salzburg 1541m,,,,,,GPS,,,,Exact,47.6922,13.4464,+1:00
70,SOTA-Summits,OE/KT-277 Bleibe,Kaernten 772m,,,,,,GPS,,,,Exact,46.5747,13.9628,+1:00
70,SOTA-Summits,OE/SB-056 Bleiko,Salzburg 2411m,,,,,,GPS,,,,Exact,47.5142,13.2983,+1:00
70,SOTA-Summits,OE/TI-369 Bleisp,Tirol 2225m,,,,,,GPS,,,,Exact,47.3983,10.8183,+1:00
70,SOTA-Summits,OE/SB-338 Blessa,Salzburg 3050m,,,,,,GPS,,,,Exact,47.1808,12.4008,+1:00
70,SOTA-Summits,OE/TI-711 Bliggs,Tirol 3453m,,,,,,GPS,,,,Exact,46.9183,10.7858,+1:00
70,SOTA-Summits,OE/TI-791 Blockk,Tirol 3097m,,,,,,GPS,,,,Exact,47.085,10.8808,+1:00
70,SOTA-Summits,OE/ST-181 Blosen,Steierma 1724m,,,,,,GPS,,,,Exact,47.5006,14.2714,+1:00
70,SOTA-Summits,OE/SB-343 Blutsp,Salzburg 2626m,,,,,,GPS,,,,Exact,47.2492,13.685,+1:00
70,SOTA-Summits,OE/SB-426 Blueme,Salzburg 1695m,,,,,,GPS,,,,Exact,47.385,13.3414,+1:00
70,SOTA-Summits,OM/ZA-064 Boboty,Zilinsky 1086m,,,,,,GPS,,,,Exact,49.244,19.0602,+1:00
70,SOTA-Summits,OE/KT-408 Bockbu,Kaernten 1677m,,,,,,GPS,,,,Exact,46.9556,14.0106,+1:00
70,SOTA-Summits,OE/TI-919 Bockka,Tirol 2602m,,,,,,GPS,,,,Exact,47.2561,10.5683,+1:00
70,SOTA-Summits,OE/VB-495 Bocksb,Vorarlbe 1461m,,,,,,GPS,,,,Exact,47.3608,9.7575,+1:00
70,SOTA-Summits,OE/ST-352 Bocksr,Steierma 1763m,,,,,,GPS,,,,Exact,47.2228,14.3931,+1:00
70,SOTA-Summits,OE/TI-111 Bockst,Tirol 2805m,,,,,,GPS,,,,Exact,46.8533,12.5353,+1:00
70,SOTA-Summits,OE/SB-256 Bodenb,Salzburg 1523m,,,,,,GPS,,,,Exact,47.5964,13.4444,+1:00
70,SOTA-Summits,OE/OO-246 Bodenw,Oberoeste 1540m,,,,,,GPS,,,,Exact,47.7517,14.5664,+1:00
70,SOTA-Summits,OM/PO-065 Bodon,Presovsk 868m,,,,,,GPS,,,,Exact,48.9402,21.4073,+1:00
70,SOTA-Summits,OM/KE-018 Bogota,Kosicky 856m,,,,,,GPS,,,,Exact,48.7011,21.5165,+1:00
70,SOTA-Summits,OM/ZA-028 Boriso,Zilinsky 1510m,,,,,,GPS,,,,Exact,48.9413,19.0892,+1:00
70,SOTA-Summits,OM/PO-070 Borsuk,Presovsk 725m,,,,,,GPS,,,,Exact,49.0977,22.2575,+1:00
70,SOTA-Summits,OE/ST-118 Bosruc,Steierma 1992m,,,,,,GPS,,,,Exact,47.623,14.3461,+1:00
70,SOTA-Summits,OE/ST-601 Brachk,Steierma 1524m,,,,,,GPS,,,,Exact,47.68975,15.38555,+1:00
70,SOTA-Summits,OM/PO-059 Brada,Presovsk 1111m,,,,,,GPS,,,,Exact,49.0217,20.0162,+1:00
70,SOTA-Summits,OM/PO-007 Bradav,Presovsk 2476m,,,,,,GPS,,,,Exact,49.1713,20.1558,+1:00
70,SOTA-Summits,OM/KE-032 Bradlo,Kosicky 840m,,,,,,GPS,,,,Exact,48.6143,21.4303,+1:00
70,SOTA-Summits,OM/TN-045 Bradlo,Trencian 543m,,,,,,GPS,,,,Exact,48.6814,17.5681,+1:00
70,SOTA-Summits,OE/ST-403 Branda,Steierma 1508m,,,,,,GPS,,,,Exact,47.5439,14.0728,+1:00
70,SOTA-Summits,OE/OO-367 Brandb,Oberoeste 1074m,,,,,,GPS,,,,Exact,47.7664,13.9675,+1:00
70,SOTA-Summits,OE/SB-025 Brandh,Salzburg 2610m,,,,,,GPS,,,,Exact,47.4475,13.0044,+1:00
70,SOTA-Summits,OE/TI-948 Brandl,Tirol 2626m,,,,,,GPS,,,,Exact,47.3636,11.5081,+1:00
70,SOTA-Summits,OE/NO-221 Brandm,Niederoes 1277m,,,,,,GPS,,,,Exact,47.9094,15.2578,+1:00
70,SOTA-Summits,OE/VB-529 Brandn,Vorarlbe 2557m,,,,,,GPS,,,,Exact,47.0891,9.7633,+1:00
70,SOTA-Summits,OE/ST-114 Brands,Steierma 2003m,,,,,,GPS,,,,Exact,47.6008,14.9831,+1:00
70,SOTA-Summits,OE/NO-174 Brands,Niederoes 569m,,,,,,GPS,,,,Exact,48.2186,14.8789,+1:00
70,SOTA-Summits,OM/ZA-093 Branko,Zilinsky 1176m,,,,,,GPS,,,,Exact,49.0051,19.3094,+1:00
70,SOTA-Summits,OE/VB-094 Brauna,Vorarlbe 2649m,,,,,,GPS,,,,Exact,47.2294,10.0642,+1:00
70,SOTA-Summits,OE/SB-196 Braune,Salzburg 1894m,,,,,,GPS,,,,Exact,47.6353,13.45,+1:00
70,SOTA-Summits,OE/ST-581 Braunh,Steierma 1073m,,,,,,GPS,,,,Exact,47.3949,15.4012,+1:00
70,SOTA-Summits,OE/NO-197 Brauns,Niederoes 346m,,,,,,GPS,,,,Exact,48.1531,16.9575,+1:00
70,SOTA-Summits,OE/ST-077 Breite,Steierma 2144m,,,,,,GPS,,,,Exact,47.3711,14.2367,+1:00
70,SOTA-Summits,OE/OO-346 Breite,Oberoeste 1412m,,,,,,GPS,,,,Exact,47.7722,13.5153,+1:00
70,SOTA-Summits,OE/OO-303 Breite,Oberoeste 956m,,,,,,GPS,,,,Exact,48.415,14.2742,+1:00
70,SOTA-Summits,OE/TI-632 Breite,Tirol 2304m,,,,,,GPS,,,,Exact,46.7472,12.6061,+1:00
70,SOTA-Summits,OE/TI-747 Breite,Tirol 3287m,,,,,,GPS,,,,Exact,47.1008,11.0233,+1:00
70,SOTA-Summits,OE/KT-357 Breite,Kaernten 1550m,,,,,,GPS,,,,Exact,46.4555,14.3577,+1:00
70,SOTA-Summits,OE/SB-373 Breitf,Salzburg 2853m,,,,,,GPS,,,,Exact,47.1945,12.3208,+1:00
70,SOTA-Summits,OE/TI-959 Breitg,Tirol 2590m,,,,,,GPS,,,,Exact,47.4075,11.3783,+1:00
70,SOTA-Summits,OE/SB-036 Breith,Salzburg 2504m,,,,,,GPS,,,,Exact,47.4572,12.9031,+1:00
70,SOTA-Summits,OE/VB-331 Breith,Vorarlbe 2081m,,,,,,GPS,,,,Exact,47.2114,9.9142,+1:00
70,SOTA-Summits,OE/VB-532 Breith,Vorarlbe 2009m,,,,,,GPS,,,,Exact,47.1791,9.8641,+1:00
70,SOTA-Summits,OE/KT-403 Breitk,Kaernten 3154m,,,,,,GPS,,,,Exact,47.1137,12.7343,+1:00
70,SOTA-Summits,OE/KT-254 Breitr,Kaernten 1553m,,,,,,GPS,,,,Exact,46.7839,14.6322,+1:00
70,SOTA-Summits,OE/SB-214 Breits,Salzburg 1804m,,,,,,GPS,,,,Exact,47.3975,13.2786,+1:00
70,SOTA-Summits,OE/ST-149 Bremst,Steierma 1868m,,,,,,GPS,,,,Exact,47.3725,14.7792,+1:00
70,SOTA-Summits,OE/OO-051 Brenne,Oberoeste 1602m,,,,,,GPS,,,,Exact,47.8167,13.5783,+1:00
70,SOTA-Summits,OE/KT-015 Brennk,Kaernten 3018m,,,,,,GPS,,,,Exact,47.0975,12.82,+1:00
70,SOTA-Summits,OE/OO-413 Brennt,Oberoeste 1135m,,,,,,GPS,,,,Exact,47.8211,13.7553,+1:00
70,SOTA-Summits,OE/TI-457 Brente,Tirol 2000m,,,,,,GPS,,,,Exact,47.5322,10.5822,+1:00
70,SOTA-Summits,OE/KT-288 Brente,Kaernten 3019m,,,,,,GPS,,,,Exact,46.9863,12.79,+1:00
70,SOTA-Summits,OE/TI-183 Brette,Tirol 2608m,,,,,,GPS,,,,Exact,47.3331,10.4617,+1:00
70,SOTA-Summits,OE/KT-051 Bretth,Kaernten 2320m,,,,,,GPS,,,,Exact,46.9125,13.9364,+1:00
70,SOTA-Summits,OM/BB-067 Breven,Banskoby 555m,,,,,,GPS,,,,Exact,48.583,20.1194,+1:00
70,SOTA-Summits,OE/NO-310 Briefb,Niederoes 837m,,,,,,GPS,,,,Exact,47.9583,14.6125,+1:00
70,SOTA-Summits,OM/ZA-115 Brodni,Zilinsky 719m,,,,,,GPS,,,,Exact,49.2653,18.7678,+1:00
70,SOTA-Summits,OE/ST-550 Brucks,Steierma 1388m,,,,,,GPS,,,,Exact,47.5906,14.5951,+1:00
70,SOTA-Summits,OE/ST-038 Bruder,Steierma 2299m,,,,,,GPS,,,,Exact,47.3878,14.4219,+1:00
70,SOTA-Summits,OE/OO-033 Brunnk,Oberoeste 1708m,,,,,,GPS,,,,Exact,47.8275,13.63,+1:00
70,SOTA-Summits,OE/OO-341 Brunnk,Oberoeste 1508m,,,,,,GPS,,,,Exact,47.7806,13.6789,+1:00
70,SOTA-Summits,OE/ST-421 Brunnk,Steierma 1104m,,,,,,GPS,,,,Exact,47.6806,13.7408,+1:00
70,SOTA-Summits,OE/OO-404 Brunns,Oberoeste 1281m,,,,,,GPS,,,,Exact,47.6217,14.2964,+1:00
70,SOTA-Summits,OE/TI-657 Brunsc,Tirol 1510m,,,,,,GPS,,,,Exact,47.3275,11.1567,+1:00
70,SOTA-Summits,OE/TL-050 Bruthe,Tirol 1023m,,,,,,GPS,,,,Exact,47.6497,12.4653,+1:00
70,SOTA-Summits,OE/ST-140 Braeun,Steierma 1899m,,,,,,GPS,,,,Exact,47.6753,13.7925,+1:00
70,SOTA-Summits,OM/PO-071 Brusy,Presovsk 683m,,,,,,GPS,,,,Exact,49.2995,21.8622,+1:00
70,SOTA-Summits,OE/VB-505 Bruegg,Vorarlbe 1182m,,,,,,GPS,,,,Exact,47.4433,9.8531,+1:00
70,SOTA-Summits,OE/NO-283 Buchal,Niederoes 1483m,,,,,,GPS,,,,Exact,47.8075,15.1775,+1:00
70,SOTA-Summits,OE/KT-375 Buchbe,Kaernten 808m,,,,,,GPS,,,,Exact,46.7761,14.4517,+1:00
70,SOTA-Summits,OE/OO-117 Buchbe,Oberoeste 808m,,,,,,GPS,,,,Exact,47.9275,13.5294,+1:00
70,SOTA-Summits,OE/OO-361 Buchbe,Oberoeste 1132m,,,,,,GPS,,,,Exact,47.8294,14.3289,+1:00
70,SOTA-Summits,OE/SB-273 Buchbe,Salzburg 1234m,,,,,,GPS,,,,Exact,47.3092,13.0583,+1:00
70,SOTA-Summits,OE/SB-295 Buchbe,Salzburg 801m,,,,,,GPS,,,,Exact,47.9536,13.1089,+1:00
70,SOTA-Summits,OE/ST-454 Buchbe,Steierma 1563m,,,,,,GPS,,,,Exact,47.6308,14.8562,+1:00
70,SOTA-Summits,OE/ST-447 Buchbe,Steierma 1700m,,,,,,GPS,,,,Exact,47.5842,15.0806,+1:00
70,SOTA-Summits,OE/ST-586 Bucheg,Steierma 942m,,,,,,GPS,,,,Exact,47.596,14.7311,+1:00
70,SOTA-Summits,OE/NO-314 Buchen,Niederoes 790m,,,,,,GPS,,,,Exact,47.9458,14.7742,+1:00
70,SOTA-Summits,OE/NO-320 Buchen,Niederoes 730m,,,,,,GPS,,,,Exact,47.9883,14.6542,+1:00
70,SOTA-Summits,OE/TI-566 Buchen,Tirol 1462m,,,,,,GPS,,,,Exact,47.4842,12.5836,+1:00
70,SOTA-Summits,OE/ST-303 Buchko,Steierma 656m,,,,,,GPS,,,,Exact,47.0381,15.375,+1:00
70,SOTA-Summits,OE/ST-311 Buchko,Steierma 550m,,,,,,GPS,,,,Exact,46.8714,15.5075,+1:00
70,SOTA-Summits,OE/ST-373 Buchwa,Steierma 1058m,,,,,,GPS,,,,Exact,47.4317,15.8536,+1:00
70,SOTA-Summits,OM/KE-019 Bucina,Kosicky 851m,,,,,,GPS,,,,Exact,48.6531,20.4112,+1:00
70,SOTA-Summits,OE/ST-544 Buckec,Steierma 1440m,,,,,,GPS,,,,Exact,47.7338,15.1755,+1:00
70,SOTA-Summits,OM/ZA-048 Budin,Zilinsky 1221m,,,,,,GPS,,,,Exact,49.3441,19.4522,+1:00
70,SOTA-Summits,9V/SG-001 Bukit ,Singapor 164m,,,,,,GPS,,,,Exact,1.3547,103.7764,+8:00
70,SOTA-Summits,OM/KE-008 Bukove,Kosicky 1127m,,,,,,GPS,,,,Exact,48.8472,20.7215,+1:00
70,SOTA-Summits,OM/BB-039 Bukovi,Banskoby 1293m,,,,,,GPS,,,,Exact,48.6746,19.4166,+1:00
70,SOTA-Summits,OM/NR-008 Burdov,Nitrians 395m,,,,,,GPS,,,,Exact,47.8327,18.7808,+1:00
70,SOTA-Summits,OE/ST-367 Burgst,Steierma 1218m,,,,,,GPS,,,,Exact,47.2294,15.5128,+1:00
70,SOTA-Summits,OE/OO-304 Burgst,Oberoeste 949m,,,,,,GPS,,,,Exact,48.3408,14.9283,+1:00
70,SOTA-Summits,OE/NO-207 Buschb,Niederoes 491m,,,,,,GPS,,,,Exact,48.5769,16.3956,+1:00
70,SOTA-Summits,OM/PO-032 Busov,Presovsk 1002m,,,,,,GPS,,,,Exact,49.3883,21.1625,+1:00
70,SOTA-Summits,OM/TN-022 Butko,Trencian 765m,,,,,,GPS,,,,Exact,49.0225,18.3317,+1:00
70,SOTA-Summits,OM/KE-028 Bykark,Kosicky 1057m,,,,,,GPS,,,,Exact,48.9133,20.4004,+1:00
70,SOTA-Summits,OM/ZA-001 Bystra,Zilinsky 2248m,,,,,,GPS,,,,Exact,49.1885,19.8425,+1:00
70,SOTA-Summits,OE/TI-269 Baeren,Tirol 2431m,,,,,,GPS,,,,Exact,46.6561,12.6036,+1:00
70,SOTA-Summits,OE/ST-395 Baeren,Steierma 1770m,,,,,,GPS,,,,Exact,47.5869,14.1261,+1:00
70,SOTA-Summits,OE/ST-461 Baeren,Steierma 1479m,,,,,,GPS,,,,Exact,47.306,15.1119,+1:00
70,SOTA-Summits,OE/TI-464 Baeren,Tirol 1991m,,,,,,GPS,,,,Exact,47.4144,11.7119,+1:00
70,SOTA-Summits,OE/NO-282 Baeren,Niederoes 1635m,,,,,,GPS,,,,Exact,47.8275,15.0958,+1:00
70,SOTA-Summits,OE/SB-108 Baeren,Salzburg 2225m,,,,,,GPS,,,,Exact,47.3256,12.5892,+1:00
70,SOTA-Summits,OE/NO-244 Boelze,Niederoes 1057m,,,,,,GPS,,,,Exact,47.9068,15.0281,+1:00
70,SOTA-Summits,OE/KT-303 Boesec,Kaernten 2842m,,,,,,GPS,,,,Exact,46.9834,13.1024,+1:00
70,SOTA-Summits,OE/KT-318 Boeses,Kaernten 2599m,,,,,,GPS,,,,Exact,46.7423,12.8116,+1:00
70,SOTA-Summits,OE/TI-042 Boeses,Tirol 3119m,,,,,,GPS,,,,Exact,46.9975,12.7228,+1:00
70,SOTA-Summits,OE/ST-265 Buerge,Steierma 1270m,,,,,,GPS,,,,Exact,47.7878,15.3292,+1:00
70,SOTA-Summits,OE/OO-428 Buergl,Oberoeste 745m,,,,,,GPS,,,,Exact,47.7264,13.4842,+1:00
70,SOTA-Summits,OE/TI-539 Buergl,Tirol 1730m,,,,,,GPS,,,,Exact,47.4314,12.5936,+1:00
70,SOTA-Summits,OE/TI-055 Buerke,Tirol 3032m,,,,,,GPS,,,,Exact,46.9897,10.3464,+1:00
70,SOTA-Summits,OM/ZA-044 Capkov,Zilinsky 1244m,,,,,,GPS,,,,Exact,49.0131,19.7468,+1:00
70,SOTA-Summits,OM/BA-003 Certov,Bratisla 752m,,,,,,GPS,,,,Exact,48.381,17.2113,+1:00
70,SOTA-Summits,OM/TN-039 Chabov,Trencian 751m,,,,,,GPS,,,,Exact,48.9697,17.9319,+1:00
70,SOTA-Summits,OM/ZA-071 Chliev,Zilinsky 1024m,,,,,,GPS,,,,Exact,48.9579,18.7608,+1:00
70,SOTA-Summits,OM/BB-063 Chlm,Banskoby 725m,,,,,,GPS,,,,Exact,48.4035,18.6829,+1:00
70,SOTA-Summits,OM/TN-011 Chmelo,Trencian 925m,,,,,,GPS,,,,Exact,49.0744,18.1538,+1:00
70,SOTA-Summits,OM/ZA-006 Chopok,Zilinsky 2024m,,,,,,GPS,,,,Exact,48.943,19.593,+1:00
70,SOTA-Summits,OM/BA-006 Cierna,Bratisla 662m,,,,,,GPS,,,,Exact,48.4994,17.3421,+1:00
70,SOTA-Summits,OM/TN-008 Cierny,Trencian 997m,,,,,,GPS,,,,Exact,48.8151,18.4085,+1:00
70,SOTA-Summits,OM/TN-035 Cierny,Trencian 865m,,,,,,GPS,,,,Exact,48.96,18.3965,+1:00
70,SOTA-Summits,OE/TI-807 Dabern,Tirol 2969m,,,,,,GPS,,,,Exact,47.0878,12.4674,+1:00
70,SOTA-Summits,OE/TI-722 Dabers,Tirol 3402m,,,,,,GPS,,,,Exact,47.0158,12.2075,+1:00
70,SOTA-Summits,OE/VB-325 Damuel,Vorarlbe 2098m,,,,,,GPS,,,,Exact,47.3103,9.8839,+1:00
70,SOTA-Summits,OE/TI-315 Daniel,Tirol 2340m,,,,,,GPS,,,,Exact,47.4325,10.8803,+1:00
70,SOTA-Summits,OE/KT-201 Daniel,Kaernten 966m,,,,,,GPS,,,,Exact,46.8879,13.2828,+1:00
70,SOTA-Summits,OE/ST-383 Deichs,Steierma 2684m,,,,,,GPS,,,,Exact,47.2703,13.8217,+1:00
70,SOTA-Summits,OE/ST-302 Demmer,Steierma 671m,,,,,,GPS,,,,Exact,46.7858,15.4297,+1:00
70,SOTA-Summits,OE/ST-020 Deneck,Steierma 2433m,,,,,,GPS,,,,Exact,47.2869,14.0506,+1:00
70,SOTA-Summits,OM/BA-004 Devins,Bratisla 514m,,,,,,GPS,,,,Exact,48.1894,16.9955,+1:00
70,SOTA-Summits,OE/VB-473 Diedam,Vorarlbe 2090m,,,,,,GPS,,,,Exact,47.3464,10.0256,+1:00
70,SOTA-Summits,OM/BB-053 Dielik,Banskoby 987m,,,,,,GPS,,,,Exact,48.7354,19.8344,+1:00
70,SOTA-Summits,OE/SB-252 Dietri,Salzburg 1542m,,,,,,GPS,,,,Exact,47.6222,12.6742,+1:00
70,SOTA-Summits,OE/NO-326 Doerrk,Niederoes 814m,,,,,,GPS,,,,Exact,47.81,14.8267,+1:00
70,SOTA-Summits,OE/KT-299 Doesne,Kaernten 2899m,,,,,,GPS,,,,Exact,46.9822,13.2933,+1:00
70,SOTA-Summits,OE/KT-412 Donner,Kaernten 682m,,,,,,GPS,,,,Exact,46.7312,14.7974,+1:00
70,SOTA-Summits,OE/NO-210 Donner,Niederoes 1617m,,,,,,GPS,,,,Exact,47.7669,15.6175,+1:00
70,SOTA-Summits,OE/ST-527 Donner,Steierma 1799m,,,,,,GPS,,,,Exact,47.7228,15.5708,+1:00
70,SOTA-Summits,OE/KT-352 Dorfer,Kaernten 1726m,,,,,,GPS,,,,Exact,46.9387,14.0725,+1:00
70,SOTA-Summits,OE/ST-517 Dornka,Steierma 2050m,,,,,,GPS,,,,Exact,47.4008,14.0767,+1:00
70,SOTA-Summits,OE/OO-411 Drache,Oberoeste 1176m,,,,,,GPS,,,,Exact,47.8139,13.3475,+1:00
70,SOTA-Summits,OM/BB-047 Drahov,Banskoby 1117m,,,,,,GPS,,,,Exact,48.6188,19.7008,+1:00
70,SOTA-Summits,OE/SB-357 Draugs,Salzburg 2358m,,,,,,GPS,,,,Exact,47.2025,13.2917,+1:00
70,SOTA-Summits,OE/NO-305 Dreiec,Niederoes 876m,,,,,,GPS,,,,Exact,47.9325,15.1083,+1:00
70,SOTA-Summits,OE/TI-009 Dreihe,Tirol 3499m,,,,,,GPS,,,,Exact,47.0692,12.2406,+1:00
70,SOTA-Summits,OE/TI-841 Dreiko,Tirol 2970m,,,,,,GPS,,,,Exact,46.9517,10.2475,+1:00
70,SOTA-Summits,OE/TI-035 Dreila,Tirol 3197m,,,,,,GPS,,,,Exact,46.8511,10.145,+1:00
70,SOTA-Summits,OE/ST-127 Dreima,Steierma 1948m,,,,,,GPS,,,,Exact,47.7086,15.7158,+1:00
70,SOTA-Summits,OE/ST-501 Dreist,Steierma 2382m,,,,,,GPS,,,,Exact,47.458,14.3957,+1:00
70,SOTA-Summits,OE/TI-913 Dremel,Tirol 2733m,,,,,,GPS,,,,Exact,47.235,10.5958,+1:00
70,SOTA-Summits,OM/TN-044 Drieno,Trencian 615m,,,,,,GPS,,,,Exact,48.6863,18.4749,+1:00
70,SOTA-Summits,OM/BB-033 Drienc,Banskoby 711m,,,,,,GPS,,,,Exact,48.4755,18.6718,+1:00
70,SOTA-Summits,OM/BB-057 Drien,Banskoby 886m,,,,,,GPS,,,,Exact,48.5076,19.2325,+1:00
70,SOTA-Summits,OM/ZA-042 Drieno,Zilinsky 1268m,,,,,,GPS,,,,Exact,48.8904,18.9617,+1:00
70,SOTA-Summits,OE/TL-019 Driste,Tirol 2005m,,,,,,GPS,,,,Exact,47.4208,11.6642,+1:00
70,SOTA-Summits,OE/TI-586 Dristn,Tirol 2767m,,,,,,GPS,,,,Exact,47.1133,11.8389,+1:00
70,SOTA-Summits,OE/ST-443 Dritte,Steierma 1892m,,,,,,GPS,,,,Exact,47.0269,14.3336,+1:00
70,SOTA-Summits,OE/VB-131 Dritte,Vorarlbe 2552m,,,,,,GPS,,,,Exact,47.0389,9.7689,+1:00
70,SOTA-Summits,OE/OO-443 Drosse,Oberoeste 1410m,,,,,,GPS,,,,Exact,47.8135,13.8909,+1:00
70,SOTA-Summits,OE/VB-045 Drusen,Vorarlbe 2827m,,,,,,GPS,,,,Exact,47.0289,9.8017,+1:00
70,SOTA-Summits,OM/TN-034 Dubova,Trencian 891m,,,,,,GPS,,,,Exact,49.2494,18.2638,+1:00
70,SOTA-Summits,OM/ZA-114 Dubova,Zilinsky 727m,,,,,,GPS,,,,Exact,49.1029,18.6152,+1:00
70,SOTA-Summits,OE/KT-381 Duernw,Kaernten 736m,,,,,,GPS,,,,Exact,46.6666,14.7262,+1:00
70,SOTA-Summits,OE/ST-531 Durcha,Steierma 1731m,,,,,,GPS,,,,Exact,47.44,13.5975,+1:00
70,SOTA-Summits,OE/SB-378 Durche,Salzburg 2680m,,,,,,GPS,,,,Exact,47.1583,12.8541,+1:00
70,SOTA-Summits,OM/NR-007 Dun,Nitrians 513m,,,,,,GPS,,,,Exact,48.4111,18.2223,+1:00
70,SOTA-Summits,OM/TN-036 Duznik,Trencian 807m,,,,,,GPS,,,,Exact,48.8993,17.8508,+1:00
70,SOTA-Summits,OE/ST-455 Duernb,Steierma 1546m,,,,,,GPS,,,,Exact,47.2108,14.3278,+1:00
70,SOTA-Summits,OE/ST-469 Duerre,Steierma 1399m,,,,,,GPS,,,,Exact,47.3613,15.2466,+1:00
70,SOTA-Summits,OE/ST-178 Duerre,Steierma 1737m,,,,,,GPS,,,,Exact,47.5528,14.3656,+1:00
70,SOTA-Summits,OE/NO-004 Duerre,Niederoes 1878m,,,,,,GPS,,,,Exact,47.7856,15.0594,+1:00
70,SOTA-Summits,OE/ST-409 Duerrn,Steierma 1387m,,,,,,GPS,,,,Exact,47.6067,14.7786,+1:00
70,SOTA-Summits,OE/NO-117 Ebenho,Niederoes 862m,,,,,,GPS,,,,Exact,47.5769,16.1825,+1:00
70,SOTA-Summits,OE/ST-085 Ebenst,Steierma 2123m,,,,,,GPS,,,,Exact,47.6061,15.0281,+1:00
70,SOTA-Summits,OE/TI-477 Ebner ,Tirol 1957m,,,,,,GPS,,,,Exact,47.4256,11.7739,+1:00
70,SOTA-Summits,OE/ST-441 Ebnera,Steierma 1932m,,,,,,GPS,,,,Exact,47.3419,14.3581,+1:00
70,SOTA-Summits,OE/KT-358 Edigon,Kaernten 2511m,,,,,,GPS,,,,Exact,46.6463,12.7771,+1:00
70,SOTA-Summits,OE/NO-235 Edlabe,Niederoes 1096m,,,,,,GPS,,,,Exact,47.8794,15.7402,+1:00
70,SOTA-Summits,OE/SB-372 Edlenk,Salzburg 2923m,,,,,,GPS,,,,Exact,47.1365,12.9265,+1:00
70,SOTA-Summits,OE/SB-422 Egelse,Salzburg 1782m,,,,,,GPS,,,,Exact,47.6437,13.3577,+1:00
70,SOTA-Summits,OE/ST-484 Eggenb,Steierma 707m,,,,,,GPS,,,,Exact,47.1558,15.3383,+1:00
70,SOTA-Summits,OE/TI-196 Eggenk,Tirol 2591m,,,,,,GPS,,,,Exact,46.7389,12.6778,+1:00
70,SOTA-Summits,OE/NO-068 Egger ,Niederoes 1134m,,,,,,GPS,,,,Exact,47.9069,14.9842,+1:00
70,SOTA-Summits,OE/KT-260 Egger ,Kaernten 1595m,,,,,,GPS,,,,Exact,46.5863,13.3965,+1:00
70,SOTA-Summits,OE/TI-329 Egger ,Tirol 2311m,,,,,,GPS,,,,Exact,47.3231,10.6075,+1:00
70,SOTA-Summits,OE/NO-315 Eibenb,Niederoes 786m,,,,,,GPS,,,,Exact,48.0133,15.4717,+1:00
70,SOTA-Summits,OE/NO-316 Eibenb,Niederoes 779m,,,,,,GPS,,,,Exact,47.9328,14.8078,+1:00
70,SOTA-Summits,OE/OO-053 Eibenb,Oberoeste 1598m,,,,,,GPS,,,,Exact,47.7878,13.8244,+1:00
70,SOTA-Summits,OE/SB-287 Eibenb,Salzburg 923m,,,,,,GPS,,,,Exact,47.7911,13.3778,+1:00
70,SOTA-Summits,OE/SB-436 Eibenb,Salzburg 1402m,,,,,,GPS,,,,Exact,47.392,13.5521,+1:00
70,SOTA-Summits,OE/ST-564 Eibenk,Steierma 1250m,,,,,,GPS,,,,Exact,47.6089,14.8024,+1:00
70,SOTA-Summits,OE/SB-448 Eibens,Salzburg 1205m,,,,,,GPS,,,,Exact,47.799,13.3362,+1:00
70,SOTA-Summits,OE/SB-336 Eiblec,Salzburg 1518m,,,,,,GPS,,,,Exact,47.743,13.21,+1:00
70,SOTA-Summits,OE/OO-363 Eiblin,Oberoeste 1108m,,,,,,GPS,,,,Exact,47.8582,14.2515,+1:00
70,SOTA-Summits,OE/ST-158 Eiblko,Steierma 1831m,,,,,,GPS,,,,Exact,47.2617,15.0981,+1:00
70,SOTA-Summits,OE/VB-511 Eichen,Vorarlbe 1069m,,,,,,GPS,,,,Exact,47.5422,9.8036,+1:00
70,SOTA-Summits,OE/SB-237 Einber,Salzburg 1688m,,,,,,GPS,,,,Exact,47.6183,13.3608,+1:00
70,SOTA-Summits,OE/TI-509 Einste,Tirol 1866m,,,,,,GPS,,,,Exact,47.5222,10.5136,+1:00
70,SOTA-Summits,OE/ST-072 Eisene,Steierma 2165m,,,,,,GPS,,,,Exact,47.5028,14.9344,+1:00
70,SOTA-Summits,OE/ST-017 Eisenh,Steierma 2456m,,,,,,GPS,,,,Exact,47.235,14.0494,+1:00
70,SOTA-Summits,OE/ST-019 Eisenh,Steierma 2441m,,,,,,GPS,,,,Exact,46.9522,13.9283,+1:00
70,SOTA-Summits,OE/TI-153 Eisenr,Tirol 2665m,,,,,,GPS,,,,Exact,46.6875,12.4689,+1:00
70,SOTA-Summits,OE/NO-226 Eisens,Niederoes 1159m,,,,,,GPS,,,,Exact,47.7664,14.8742,+1:00
70,SOTA-Summits,OE/TI-865 Eisens,Tirol 2859m,,,,,,GPS,,,,Exact,47.1625,10.4475,+1:00
70,SOTA-Summits,OE/NO-066 Eisens,Niederoes 1185m,,,,,,GPS,,,,Exact,47.9597,15.4397,+1:00
70,SOTA-Summits,OE/VB-028 Eisent,Vorarlbe 2875m,,,,,,GPS,,,,Exact,46.9133,9.9625,+1:00
70,SOTA-Summits,OE/TI-953 Eiskar,Tirol 2610m,,,,,,GPS,,,,Exact,47.3767,11.5592,+1:00
70,SOTA-Summits,OE/TI-729 Eiskas,Tirol 3371m,,,,,,GPS,,,,Exact,46.93,10.7925,+1:00
70,SOTA-Summits,OE/OO-084 Eiskog,Oberoeste 1087m,,,,,,GPS,,,,Exact,47.9119,14.0514,+1:00
70,SOTA-Summits,OE/SB-078 Eiskog,Salzburg 2321m,,,,,,GPS,,,,Exact,47.4967,13.2819,+1:00
70,SOTA-Summits,OE/ST-359 Eisner,Steierma 1440m,,,,,,GPS,,,,Exact,47.6033,15.4336,+1:00
70,SOTA-Summits,OE/ST-425 Elendb,Steierma 2672m,,,,,,GPS,,,,Exact,47.284,13.7464,+1:00
70,SOTA-Summits,OE/VB-204 Elferk,Vorarlbe 2387m,,,,,,GPS,,,,Exact,47.3022,10.1778,+1:00
70,SOTA-Summits,OE/KT-386 Elfers,Kaernten 2254m,,,,,,GPS,,,,Exact,46.6255,12.9911,+1:00
70,SOTA-Summits,OE/TI-239 Elfers,Tirol 2505m,,,,,,GPS,,,,Exact,47.0825,11.3128,+1:00
70,SOTA-Summits,OE/TI-310 Ellmau,Tirol 2344m,,,,,,GPS,,,,Exact,47.5617,12.3025,+1:00
70,SOTA-Summits,OE/SB-282 Ellmau,Salzburg 1047m,,,,,,GPS,,,,Exact,47.7933,13.3217,+1:00
70,SOTA-Summits,OE/ST-082 Elm,Steierma 2128m,,,,,,GPS,,,,Exact,47.6736,13.9628,+1:00
70,SOTA-Summits,OE/ST-378 Emberg,Steierma 917m,,,,,,GPS,,,,Exact,47.4364,15.2572,+1:00
70,SOTA-Summits,OE/SB-346 Engelk,Salzburg 2518m,,,,,,GPS,,,,Exact,47.2731,13.6614,+1:00
70,SOTA-Summits,OE/NO-222 Enzian,Niederoes 1230m,,,,,,GPS,,,,Exact,47.86,15.4878,+1:00
70,SOTA-Summits,OE/OO-056 Erlako,Oberoeste 1575m,,,,,,GPS,,,,Exact,47.8192,13.8253,+1:00
70,SOTA-Summits,OE/TI-282 Erlspi,Tirol 2405m,,,,,,GPS,,,,Exact,47.32,11.2856,+1:00
70,SOTA-Summits,OE/NO-093 Eselbe,Niederoes 974m,,,,,,GPS,,,,Exact,47.6314,15.9961,+1:00
70,SOTA-Summits,OE/ST-497 Eselst,Steierma 2556m,,,,,,GPS,,,,Exact,47.4541,13.6755,+1:00
70,SOTA-Summits,OE/TI-893 Etlerk,Tirol 2693m,,,,,,GPS,,,,Exact,47.2122,10.3731,+1:00
70,SOTA-Summits,OM/BB-008 Fabova,Banskoby 1439m,,,,,,GPS,,,,Exact,48.7725,19.8855,+1:00
70,SOTA-Summits,OE/ST-526 Fadenk,Steierma 1804m,,,,,,GPS,,,,Exact,47.7092,15.0868,+1:00
70,SOTA-Summits,OE/OO-407 Fahren,Oberoeste 1253m,,,,,,GPS,,,,Exact,47.8733,14.4824,+1:00
70,SOTA-Summits,OE/OO-275 Fahrna,Oberoeste 1239m,,,,,,GPS,,,,Exact,47.8378,13.7503,+1:00
70,SOTA-Summits,OE/SB-250 Faiste,Salzburg 1559m,,,,,,GPS,,,,Exact,47.7486,13.305,+1:00
70,SOTA-Summits,OE/VB-431 Falben,Vorarlbe 1793m,,,,,,GPS,,,,Exact,47.2725,9.7692,+1:00
70,SOTA-Summits,OE/KT-218 Falken,Kaernten 671m,,,,,,GPS,,,,Exact,46.635,14.2558,+1:00
70,SOTA-Summits,OE/ST-476 Falken,Steierma 1158m,,,,,,GPS,,,,Exact,47.2027,14.6024,+1:00
70,SOTA-Summits,OE/ST-478 Falken,Steierma 1035m,,,,,,GPS,,,,Exact,47.7058,15.1625,+1:00
70,SOTA-Summits,OE/OO-431 Falken,Oberoeste 737m,,,,,,GPS,,,,Exact,47.782,14.1755,+1:00
70,SOTA-Summits,OE/TI-912 Fallen,Tirol 2733m,,,,,,GPS,,,,Exact,47.2,10.3908,+1:00
70,SOTA-Summits,OE/ST-456 Fallen,Steierma 1536m,,,,,,GPS,,,,Exact,47.72,15.4067,+1:00
70,SOTA-Summits,OE/TI-902 Falles,Tirol 2769m,,,,,,GPS,,,,Exact,47.1808,10.3017,+1:00
70,SOTA-Summits,OE/TI-686 Falsch,Tirol 2388m,,,,,,GPS,,,,Exact,47.2944,10.6594,+1:00
70,SOTA-Summits,OE/TI-834 Faself,Tirol 2993m,,,,,,GPS,,,,Exact,47.0633,10.2392,+1:00
70,SOTA-Summits,OE/SB-342 Faulko,Salzburg 2654m,,,,,,GPS,,,,Exact,47.2158,13.3725,+1:00
70,SOTA-Summits,OE/OO-362 Feicht,Oberoeste 1114m,,,,,,GPS,,,,Exact,47.8794,14.6372,+1:00
70,SOTA-Summits,OE/TI-852 Feicht,Tirol 2916m,,,,,,GPS,,,,Exact,47.0158,10.7075,+1:00
70,SOTA-Summits,OE/OO-207 Feigen,Oberoeste 1984m,,,,,,GPS,,,,Exact,47.7225,13.8864,+1:00
70,SOTA-Summits,OE/ST-093 Feiste,Steierma 2081m,,,,,,GPS,,,,Exact,47.3847,14.7,+1:00
70,SOTA-Summits,OE/TI-518 Feldbe,Tirol 1813m,,,,,,GPS,,,,Exact,47.5922,12.3239,+1:00
70,SOTA-Summits,OE/TI-772 Felder,Tirol 3071m,,,,,,GPS,,,,Exact,47.0464,10.9178,+1:00
70,SOTA-Summits,OE/KT-301 Feldse,Kaernten 2864m,,,,,,GPS,,,,Exact,47.0014,13.0701,+1:00
70,SOTA-Summits,OE/TI-530 Fellho,Tirol 1764m,,,,,,GPS,,,,Exact,47.61,12.5089,+1:00
70,SOTA-Summits,OE/VB-230 Fenste,Vorarlbe 2329m,,,,,,GPS,,,,Exact,47.1547,10.0047,+1:00
70,SOTA-Summits,OE/KT-116 Ferlac,Kaernten 1840m,,,,,,GPS,,,,Exact,46.4867,14.3142,+1:00
70,SOTA-Summits,OE/KT-394 Ferlac,Kaernten 1742m,,,,,,GPS,,,,Exact,46.5214,13.9642,+1:00
70,SOTA-Summits,OE/TL-018 Feuer ,Tirol 2008m,,,,,,GPS,,,,Exact,46.7633,12.6458,+1:00
70,SOTA-Summits,OE/VB-261 Feuers,Vorarlbe 2271m,,,,,,GPS,,,,Exact,47.2294,10.0106,+1:00
70,SOTA-Summits,OE/NO-206 Feuers,Niederoes 507m,,,,,,GPS,,,,Exact,48.1842,16.1575,+1:00
70,SOTA-Summits,OE/VB-463 Feuers,Vorarlbe 1645m,,,,,,GPS,,,,Exact,47.4325,10.0781,+1:00
70,SOTA-Summits,OE/ST-502 Feuert,Steierma 2376m,,,,,,GPS,,,,Exact,47.6858,14.0221,+1:00
70,SOTA-Summits,OE/TL-049 Fiecht,Tirol 1032m,,,,,,GPS,,,,Exact,47.2975,11.0142,+1:00
70,SOTA-Summits,OE/SB-267 Filbli,Salzburg 1307m,,,,,,GPS,,,,Exact,47.7878,13.2681,+1:00
70,SOTA-Summits,OE/KT-390 Finden,Kaernten 2016m,,,,,,GPS,,,,Exact,46.596,13.1011,+1:00
70,SOTA-Summits,OE/TI-701 Fineil,Tirol 3514m,,,,,,GPS,,,,Exact,46.78,10.8317,+1:00
70,SOTA-Summits,OE/TI-704 Firmis,Tirol 3490m,,,,,,GPS,,,,Exact,46.8192,10.9533,+1:00
70,SOTA-Summits,OM/ZA-085 Fisiar,Zilinsky 1478m,,,,,,GPS,,,,Exact,48.9246,19.7814,+1:00
70,SOTA-Summits,OE/TL-054 Fleidi,Tirol 1892m,,,,,,GPS,,,,Exact,47.4035,12.2495,+1:00
70,SOTA-Summits,OE/TI-774 Fleisc,Tirol 3157m,,,,,,GPS,,,,Exact,46.9583,12.1625,+1:00
70,SOTA-Summits,OE/TL-053 Fleisc,Tirol 2026m,,,,,,GPS,,,,Exact,47.4789,11.5192,+1:00
70,SOTA-Summits,OE/SB-449 Flicht,Salzburg 1204m,,,,,,GPS,,,,Exact,47.572,13.3085,+1:00
70,SOTA-Summits,OE/TI-582 Flimsp,Tirol 2929m,,,,,,GPS,,,,Exact,46.9819,10.3433,+1:00
70,SOTA-Summits,OE/TL-010 Floch,Tirol 2057m,,,,,,GPS,,,,Exact,47.3658,12.2625,+1:00
70,SOTA-Summits,OM/ZA-038 Flocho,Zilinsky 1317m,,,,,,GPS,,,,Exact,48.8088,18.9719,+1:00
70,SOTA-Summits,OE/TI-890 Floite,Tirol 2805m,,,,,,GPS,,,,Exact,47.0892,11.8692,+1:00
70,SOTA-Summits,OE/ST-216 Flonin,Steierma 1583m,,,,,,GPS,,,,Exact,47.4878,15.2025,+1:00
70,SOTA-Summits,OE/TI-703 Flucht,Tirol 3497m,,,,,,GPS,,,,Exact,46.8575,10.7925,+1:00
70,SOTA-Summits,OE/NO-324 Fohrab,Niederoes 438m,,,,,,GPS,,,,Exact,48.3372,15.6603,+1:00
70,SOTA-Summits,OE/SB-369 Foissk,Salzburg 3029m,,,,,,GPS,,,,Exact,47.1653,12.2187,+1:00
70,SOTA-Summits,OM/KE-015 Folkma,Kosicky 915m,,,,,,GPS,,,,Exact,48.8291,21.0112,+1:00
70,SOTA-Summits,OE/VB-248 Formal,Vorarlbe 2292m,,,,,,GPS,,,,Exact,47.1681,10.0094,+1:00
70,SOTA-Summits,OE/VB-193 Formar,Vorarlbe 2413m,,,,,,GPS,,,,Exact,47.17,9.9508,+1:00
70,SOTA-Summits,OE/ST-116 Frauen,Steierma 1997m,,,,,,GPS,,,,Exact,47.0647,14.1369,+1:00
70,SOTA-Summits,OE/ST-525 Frauen,Steierma 1827m,,,,,,GPS,,,,Exact,47.5637,14.974,+1:00
70,SOTA-Summits,OE/SB-379 Frauen,Salzburg 2678m,,,,,,GPS,,,,Exact,47.1194,13.3578,+1:00
70,SOTA-Summits,OE/ST-357 Freibe,Steierma 1488m,,,,,,GPS,,,,Exact,47.1722,14.0769,+1:00
70,SOTA-Summits,OE/KT-106 Freibe,Kaernten 1923m,,,,,,GPS,,,,Exact,46.4886,14.4092,+1:00
70,SOTA-Summits,OE/TI-094 Freisp,Tirol 2884m,,,,,,GPS,,,,Exact,47.2006,10.4286,+1:00
70,SOTA-Summits,OE/OO-093 Freith,Oberoeste 958m,,,,,,GPS,,,,Exact,47.9392,14.6539,+1:00
70,SOTA-Summits,OE/KT-175 Freith,Kaernten 1188m,,,,,,GPS,,,,Exact,46.8439,14.2431,+1:00
70,SOTA-Summits,OE/NO-278 Freith,Niederoes 615m,,,,,,GPS,,,,Exact,48.0297,15.1156,+1:00
70,SOTA-Summits,OE/TI-994 Freiun,Tirol 2332m,,,,,,GPS,,,,Exact,47.3175,11.2583,+1:00
70,SOTA-Summits,OE/KT-374 Freude,Kaernten 817m,,,,,,GPS,,,,Exact,46.7009,14.205,+1:00
70,SOTA-Summits,OE/NO-319 Friedr,Niederoes 732m,,,,,,GPS,,,,Exact,48.3433,15.4375,+1:00
70,SOTA-Summits,OE/NO-218 Friesl,Niederoes 1340m,,,,,,GPS,,,,Exact,47.8621,14.8916,+1:00
70,SOTA-Summits,OE/ST-233 Friess,Steierma 1491m,,,,,,GPS,,,,Exact,47.3619,15.4767,+1:00
70,SOTA-Summits,OE/SB-399 Fritze,Salzburg 2360m,,,,,,GPS,,,,Exact,47.5099,13.3295,+1:00
70,SOTA-Summits,OE/SB-419 Fromme,Salzburg 1883m,,,,,,GPS,,,,Exact,47.4656,13.3274,+1:00
70,SOTA-Summits,OE/TL-005 Frudig,Tirol 2161m,,,,,,GPS,,,,Exact,46.9725,10.585,+1:00
70,SOTA-Summits,OE/SB-409 Fruehm,Salzburg 2233m,,,,,,GPS,,,,Exact,47.2978,12.2675,+1:00
70,SOTA-Summits,OE/SB-163 Fulsec,Salzburg 2035m,,,,,,GPS,,,,Exact,47.2353,13.1481,+1:00
70,SOTA-Summits,OE/VB-198 Fundel,Vorarlbe 2401m,,,,,,GPS,,,,Exact,47.1103,9.6767,+1:00
70,SOTA-Summits,OE/TI-046 Fundus,Tirol 3079m,,,,,,GPS,,,,Exact,47.1125,10.8703,+1:00
70,SOTA-Summits,OE/TI-064 Furgle,Tirol 3004m,,,,,,GPS,,,,Exact,47.0403,10.5119,+1:00
70,SOTA-Summits,OE/NO-238 Furtne,Niederoes 1090m,,,,,,GPS,,,,Exact,47.9172,15.7669,+1:00
70,SOTA-Summits,OE/KT-004 Fusche,Kaernten 3331m,,,,,,GPS,,,,Exact,47.0989,12.745,+1:00
70,SOTA-Summits,OE/NO-253 Foellb,Niederoes 1014m,,,,,,GPS,,,,Exact,47.8936,15.0703,+1:00
70,SOTA-Summits,OE/ST-299 Fuerst,Steierma 754m,,,,,,GPS,,,,Exact,47.0903,15.3856,+1:00
70,SOTA-Summits,OE/SB-162 Gabel,Salzburg 2037m,,,,,,GPS,,,,Exact,47.2844,13.2694,+1:00
70,SOTA-Summits,OE/TI-964 Gabels,Tirol 2581m,,,,,,GPS,,,,Exact,47.3025,10.6833,+1:00
70,SOTA-Summits,OE/OO-412 Gaflen,Oberoeste 1167m,,,,,,GPS,,,,Exact,47.8622,14.7328,+1:00
70,SOTA-Summits,OE/VB-084 Gaflun,Vorarlbe 2676m,,,,,,GPS,,,,Exact,47.0639,10.1347,+1:00
70,SOTA-Summits,OE/TI-469 Gaicht,Tirol 1986m,,,,,,GPS,,,,Exact,47.4658,10.6397,+1:00
70,SOTA-Summits,OE/OO-271 Gaisbe,Oberoeste 1267m,,,,,,GPS,,,,Exact,47.9103,14.2806,+1:00
70,SOTA-Summits,OE/SB-268 Gaisbe,Salzburg 1287m,,,,,,GPS,,,,Exact,47.8053,13.1125,+1:00
70,SOTA-Summits,OE/TI-528 Gaisbe,Tirol 1770m,,,,,,GPS,,,,Exact,47.4264,12.2869,+1:00
70,SOTA-Summits,OE/TI-356 Gaisho,Tirol 2247m,,,,,,GPS,,,,Exact,47.4697,10.4761,+1:00
70,SOTA-Summits,OE/TI-105 Gaisko,Tirol 2820m,,,,,,GPS,,,,Exact,47.2039,11.0536,+1:00
70,SOTA-Summits,OE/NO-258 Gaisst,Niederoes 974m,,,,,,GPS,,,,Exact,47.9641,15.9345,+1:00
70,SOTA-Summits,OE/NO-183 Galgen,Niederoes 425m,,,,,,GPS,,,,Exact,48.7086,16.5858,+1:00
70,SOTA-Summits,OE/KT-368 Gallek,Kaernten 1005m,,,,,,GPS,,,,Exact,46.7916,14.5302,+1:00
70,SOTA-Summits,OE/TI-272 Galten,Tirol 2424m,,,,,,GPS,,,,Exact,47.3367,11.9761,+1:00
70,SOTA-Summits,OE/TI-478 Gampen,Tirol 1957m,,,,,,GPS,,,,Exact,47.405,12.2658,+1:00
70,SOTA-Summits,OE/TI-873 Gamsbe,Tirol 2839m,,,,,,GPS,,,,Exact,47.0775,10.53,+1:00
70,SOTA-Summits,OE/SB-165 Gamsfe,Salzburg 2027m,,,,,,GPS,,,,Exact,47.6233,13.4808,+1:00
70,SOTA-Summits,OE/VB-282 Gamsfr,Vorarlbe 2211m,,,,,,GPS,,,,Exact,47.1733,9.8972,+1:00
70,SOTA-Summits,OE/TI-399 Gamsha,Tirol 2178m,,,,,,GPS,,,,Exact,47.3647,12.4678,+1:00
70,SOTA-Summits,OE/TI-616 Gamsjo,Tirol 2452m,,,,,,GPS,,,,Exact,47.4183,11.5483,+1:00
70,SOTA-Summits,OE/SB-042 Gamska,Salzburg 2467m,,,,,,GPS,,,,Exact,47.1611,13.1586,+1:00
70,SOTA-Summits,OE/KT-020 Gamska,Kaernten 2833m,,,,,,GPS,,,,Exact,47.0372,13.1619,+1:00
70,SOTA-Summits,OE/SB-055 Gamska,Salzburg 2411m,,,,,,GPS,,,,Exact,47.2511,13.585,+1:00
70,SOTA-Summits,OE/ST-427 Gamska,Steierma 2439m,,,,,,GPS,,,,Exact,47.2563,13.8762,+1:00
70,SOTA-Summits,OE/KT-327 Gamsko,Kaernten 2526m,,,,,,GPS,,,,Exact,46.6308,12.9008,+1:00
70,SOTA-Summits,OE/ST-028 Gamsko,Steierma 2388m,,,,,,GPS,,,,Exact,47.3658,14.5489,+1:00
70,SOTA-Summits,OE/ST-063 Gamsko,Steierma 2210m,,,,,,GPS,,,,Exact,47.0072,13.9499,+1:00
70,SOTA-Summits,OE/SB-398 Gamskr,Salzburg 2362m,,,,,,GPS,,,,Exact,47.2329,12.6395,+1:00
70,SOTA-Summits,OE/TI-888 Gamsko,Tirol 2808m,,,,,,GPS,,,,Exact,47.0258,10.7108,+1:00
70,SOTA-Summits,OE/ST-498 Gamsle,Steierma 2489m,,,,,,GPS,,,,Exact,47.2386,13.9212,+1:00
70,SOTA-Summits,OE/SB-070 Gamsle,Salzburg 2359m,,,,,,GPS,,,,Exact,47.2392,13.5467,+1:00
70,SOTA-Summits,OE/NO-264 Gamsma,Niederoes 1560m,,,,,,GPS,,,,Exact,47.7866,15.5509,+1:00
70,SOTA-Summits,OE/OO-270 Gamsst,Oberoeste 1273m,,,,,,GPS,,,,Exact,47.8344,14.5403,+1:00
70,SOTA-Summits,OE/TI-786 Ganot,Tirol 3102m,,,,,,GPS,,,,Exact,46.9583,12.7067,+1:00
70,SOTA-Summits,OE/VB-057 Gargel,Vorarlbe 2770m,,,,,,GPS,,,,Exact,46.9419,9.8914,+1:00
70,SOTA-Summits,OE/TI-623 Gartne,Tirol 2377m,,,,,,GPS,,,,Exact,47.3847,10.8208,+1:00
70,SOTA-Summits,OE/KT-067 Gartne,Kaernten 2195m,,,,,,GPS,,,,Exact,46.5714,13.3036,+1:00
70,SOTA-Summits,OE/KT-158 Gasser,Kaernten 1347m,,,,,,GPS,,,,Exact,46.9314,14.4786,+1:00
70,SOTA-Summits,OE/TI-915 Gastan,Tirol 2730m,,,,,,GPS,,,,Exact,47.0875,10.1683,+1:00
70,SOTA-Summits,OE/KT-180 Gauers,Kaernten 1129m,,,,,,GPS,,,,Exact,46.7769,14.3067,+1:00
70,SOTA-Summits,OE/ST-436 Gassen,Steierma 2111m,,,,,,GPS,,,,Exact,47.3631,14.0483,+1:00
70,SOTA-Summits,OE/TI-746 Gefror,Tirol 3288m,,,,,,GPS,,,,Exact,47.065,11.6792,+1:00
70,SOTA-Summits,OE/ST-538 Gehart,Steierma 1567m,,,,,,GPS,,,,Exact,47.6405,15.0309,+1:00
70,SOTA-Summits,OE/TI-301 Gehren,Tirol 2367m,,,,,,GPS,,,,Exact,47.3867,11.1353,+1:00
70,SOTA-Summits,OE/TI-402 Gehren,Tirol 2163m,,,,,,GPS,,,,Exact,47.5003,10.6553,+1:00
70,SOTA-Summits,OE/ST-023 Geierh,Steierma 2417m,,,,,,GPS,,,,Exact,47.3747,14.6361,+1:00
70,SOTA-Summits,OE/ST-051 Geierk,Steierma 2231m,,,,,,GPS,,,,Exact,47.4,14.4997,+1:00
70,SOTA-Summits,OE/TL-029 Geierk,Tirol 1753m,,,,,,GPS,,,,Exact,47.4967,12.6392,+1:00
70,SOTA-Summits,OE/TL-004 Geierk,Tirol 2161m,,,,,,GPS,,,,Exact,47.5192,10.875,+1:00
70,SOTA-Summits,OE/ST-396 Geiger,Steierma 1723m,,,,,,GPS,,,,Exact,47.6267,14.9111,+1:00
70,SOTA-Summits,OE/NO-318 Geisbe,Niederoes 752m,,,,,,GPS,,,,Exact,48.0411,15.5219,+1:00
70,SOTA-Summits,OE/VB-213 Geissh,Vorarlbe 2366m,,,,,,GPS,,,,Exact,47.2878,10.1756,+1:00
70,SOTA-Summits,OE/TI-683 Geissl,Tirol 3216m,,,,,,GPS,,,,Exact,47.0633,11.0766,+1:00
70,SOTA-Summits,OE/VB-189 Geiste,Vorarlbe 2480m,,,,,,GPS,,,,Exact,47.041,10.0191,+1:00
70,SOTA-Summits,OE/NO-121 Geissb,Niederoes 849m,,,,,,GPS,,,,Exact,48.0419,15.4753,+1:00
70,SOTA-Summits,OE/KT-405 Geissk,Kaernten 2816m,,,,,,GPS,,,,Exact,46.9226,12.8084,+1:00
70,SOTA-Summits,OE/ST-408 Geisso,Steierma 1408m,,,,,,GPS,,,,Exact,47.4875,14.2333,+1:00
70,SOTA-Summits,OE/KT-410 Geissr,Kaernten 988m,,,,,,GPS,,,,Exact,46.7538,13.6304,+1:00
70,SOTA-Summits,OE/OO-406 Geisss,Oberoeste 1279m,,,,,,GPS,,,,Exact,47.84,14.0422,+1:00
70,SOTA-Summits,OE/TI-304 Geisss,Tirol 2363m,,,,,,GPS,,,,Exact,47.3375,12.4953,+1:00
70,SOTA-Summits,OM/BA-005 Geldek,Bratisla 694m,,,,,,GPS,,,,Exact,48.4325,17.3118,+1:00
70,SOTA-Summits,OE/NO-251 Gelaen,Niederoes 1023m,,,,,,GPS,,,,Exact,47.8049,15.9698,+1:00
70,SOTA-Summits,OE/NO-018 Gemein,Niederoes 1626m,,,,,,GPS,,,,Exact,47.8128,15.2497,+1:00
70,SOTA-Summits,OE/NO-256 Gemein,Niederoes 1006m,,,,,,GPS,,,,Exact,47.9692,15.7561,+1:00
70,SOTA-Summits,OE/SB-226 Genner,Salzburg 1735m,,,,,,GPS,,,,Exact,47.6753,13.3094,+1:00
70,SOTA-Summits,OE/KT-286 Georgs,Kaernten 3090m,,,,,,GPS,,,,Exact,46.9536,12.8196,+1:00
70,SOTA-Summits,OM/PO-001 Gerlac,Presovsk 2654m,,,,,,GPS,,,,Exact,49.1641,20.134,+1:00
70,SOTA-Summits,OE/KT-108 Gerlit,Kaernten 1909m,,,,,,GPS,,,,Exact,46.6947,13.9139,+1:00
70,SOTA-Summits,OE/SB-228 Gerzko,Salzburg 1728m,,,,,,GPS,,,,Exact,47.4606,13.4306,+1:00
70,SOTA-Summits,OE/ST-467 Gfaell,Steierma 1450m,,,,,,GPS,,,,Exact,47.5083,15.1167,+1:00
70,SOTA-Summits,OE/NO-113 Gfoehl,Niederoes 885m,,,,,,GPS,,,,Exact,48.0733,15.8269,+1:00
70,SOTA-Summits,OE/TI-832 Gigali,Tirol 3001m,,,,,,GPS,,,,Exact,47.0575,11.8917,+1:00
70,SOTA-Summits,OE/TI-237 Gilfer,Tirol 2506m,,,,,,GPS,,,,Exact,47.2681,11.7431,+1:00
70,SOTA-Summits,OE/TI-958 Gimpel,Tirol 2173m,,,,,,GPS,,,,Exact,47.5013,10.6125,+1:00
70,SOTA-Summits,OM/BB-050 Gindur,Banskoby 1098m,,,,,,GPS,,,,Exact,48.8357,20.0288,+1:00
70,SOTA-Summits,OE/NO-107 Ginsel,Niederoes 905m,,,,,,GPS,,,,Exact,47.9886,15.1211,+1:00
70,SOTA-Summits,OE/TI-998 Gipfel,Tirol 2262m,,,,,,GPS,,,,Exact,46.7583,12.685,+1:00
70,SOTA-Summits,OE/ST-448 Gipfel,Steierma 1673m,,,,,,GPS,,,,Exact,47.2782,15.1412,+1:00
70,SOTA-Summits,OE/ST-598 Gipfel,Steierma 1468m,,,,,,GPS,,,,Exact,47.4465,15.1466,+1:00
70,SOTA-Summits,OE/ST-424 Gipfel,Steierma 702m,,,,,,GPS,,,,Exact,47.1276,15.4746,+1:00
70,SOTA-Summits,OE/NO-013 Gippel,Niederoes 1669m,,,,,,GPS,,,,Exact,47.7983,15.5806,+1:00
70,SOTA-Summits,OE/ST-485 Gjoade,Steierma 2525m,,,,,,GPS,,,,Exact,47.2825,13.97,+1:00
70,SOTA-Summits,OE/TI-757 Glaett,Tirol 3133m,,,,,,GPS,,,,Exact,47.0371,11.2809,+1:00
70,SOTA-Summits,OE/TI-373 Glande,Tirol 2512m,,,,,,GPS,,,,Exact,47.1483,10.6617,+1:00
70,SOTA-Summits,OE/SB-393 Glaser,Salzburg 2434m,,,,,,GPS,,,,Exact,47.1214,13.2152,+1:00
70,SOTA-Summits,OE/VB-197 Glatte,Vorarlbe 2403m,,,,,,GPS,,,,Exact,47.2681,9.9714,+1:00
70,SOTA-Summits,OE/VB-311 Glatth,Vorarlbe 2133m,,,,,,GPS,,,,Exact,47.2653,9.88,+1:00
70,SOTA-Summits,OE/NO-301 Glatzb,Niederoes 904m,,,,,,GPS,,,,Exact,47.9325,14.7875,+1:00
70,SOTA-Summits,OE/ST-309 Gleich,Steierma 598m,,,,,,GPS,,,,Exact,46.8919,15.9083,+1:00
70,SOTA-Summits,OE/TI-956 Gleirs,Tirol 2372m,,,,,,GPS,,,,Exact,47.3264,11.4103,+1:00
70,SOTA-Summits,OE/SB-050 Glings,Salzburg 2433m,,,,,,GPS,,,,Exact,47.1589,13.3178,+1:00
70,SOTA-Summits,OE/TI-735 Glocke,Tirol 3353m,,,,,,GPS,,,,Exact,46.8925,10.6658,+1:00
70,SOTA-Summits,OE/ST-557 Gloeck,Steierma 1319m,,,,,,GPS,,,,Exact,47.6921,14.5509,+1:00
70,SOTA-Summits,OE/TI-034 Gloedi,Tirol 3206m,,,,,,GPS,,,,Exact,46.9614,12.7258,+1:00
70,SOTA-Summits,OE/OO-106 Gmundn,Oberoeste 884m,,,,,,GPS,,,,Exact,47.9058,13.7353,+1:00
70,SOTA-Summits,OE/OO-139 Gobel ,Oberoeste 484m,,,,,,GPS,,,,Exact,48.2175,14.84,+1:00
70,SOTA-Summits,OE/ST-391 Goldac,Steierma 2171m,,,,,,GPS,,,,Exact,47.0348,14.0574,+1:00
70,SOTA-Summits,OE/KT-076 Goldec,Kaernten 2142m,,,,,,GPS,,,,Exact,46.7586,13.4589,+1:00
70,SOTA-Summits,OE/KT-261 Golser,Kaernten 1561m,,,,,,GPS,,,,Exact,46.7104,13.5468,+1:00
70,SOTA-Summits,OE/KT-094 Golz,Kaernten 2004m,,,,,,GPS,,,,Exact,46.6714,13.3653,+1:00
70,SOTA-Summits,OE/TI-324 Golzen,Tirol 2317m,,,,,,GPS,,,,Exact,46.7344,12.6036,+1:00
70,SOTA-Summits,OE/VB-502 Gopfbe,Vorarlbe 1316m,,,,,,GPS,,,,Exact,47.3578,9.8989,+1:00
70,SOTA-Summits,OE/TI-441 Gr. Sc,Tirol 2059m,,,,,,GPS,,,,Exact,47.5183,10.6233,+1:00
70,SOTA-Summits,OE/KT-314 Graben,Kaernten 2659m,,,,,,GPS,,,,Exact,46.838,13.0499,+1:00
70,SOTA-Summits,OE/KT-280 Gracar,Kaernten 687m,,,,,,GPS,,,,Exact,46.5983,14.5967,+1:00
70,SOTA-Summits,OE/KT-154 Grafen,Kaernten 1441m,,,,,,GPS,,,,Exact,46.7119,13.2286,+1:00
70,SOTA-Summits,OE/KT-323 Grafis,Kaernten 2553m,,,,,,GPS,,,,Exact,46.8058,13.1368,+1:00
70,SOTA-Summits,OE/KT-035 Grakof,Kaernten 2551m,,,,,,GPS,,,,Exact,46.8328,13.2283,+1:00
70,SOTA-Summits,OE/TI-740 Granat,Tirol 3318m,,,,,,GPS,,,,Exact,46.8369,11.0722,+1:00
70,SOTA-Summits,OE/KT-269 Grasch,Kaernten 728m,,,,,,GPS,,,,Exact,46.577,13.8249,+1:00
70,SOTA-Summits,OE/KT-091 Grasli,Kaernten 2044m,,,,,,GPS,,,,Exact,46.6542,13.4683,+1:00
70,SOTA-Summits,OE/TI-500 Gratls,Tirol 1899m,,,,,,GPS,,,,Exact,47.415,11.9475,+1:00
70,SOTA-Summits,OE/ST-475 Gratma,Steierma 1296m,,,,,,GPS,,,,Exact,47.7033,15.1842,+1:00
70,SOTA-Summits,OE/KT-397 Gratsc,Kaernten 1360m,,,,,,GPS,,,,Exact,46.5274,13.9944,+1:00
70,SOTA-Summits,OE/SB-380 Grauka,Salzburg 2663m,,,,,,GPS,,,,Exact,47.1323,12.1656,+1:00
70,SOTA-Summits,OE/SB-037 Grauko,Salzburg 2492m,,,,,,GPS,,,,Exact,47.0972,13.1714,+1:00
70,SOTA-Summits,OE/SB-350 Grauno,Salzburg 2477m,,,,,,GPS,,,,Exact,47.26,13.6959,+1:00
70,SOTA-Summits,OE/KT-337 Greger,Kaernten 2296m,,,,,,GPS,,,,Exact,46.9184,13.8153,+1:00
70,SOTA-Summits,OE/ST-008 Greife,Steierma 2618m,,,,,,GPS,,,,Exact,47.2892,13.7892,+1:00
70,SOTA-Summits,OE/ST-015 Greim,Steierma 2474m,,,,,,GPS,,,,Exact,47.2475,14.1517,+1:00
70,SOTA-Summits,OE/TI-087 Griesk,Tirol 2911m,,,,,,GPS,,,,Exact,46.9906,10.9711,+1:00
70,SOTA-Summits,OE/ST-346 Griesm,Steierma 2034m,,,,,,GPS,,,,Exact,47.5511,14.9833,+1:00
70,SOTA-Summits,OE/TI-838 Griess,Tirol 2830m,,,,,,GPS,,,,Exact,47.1836,10.4354,+1:00
70,SOTA-Summits,OE/TI-949 Griest,Tirol 2622m,,,,,,GPS,,,,Exact,47.2275,10.3367,+1:00
70,SOTA-Summits,OE/SB-390 Griess,Salzburg 2504m,,,,,,GPS,,,,Exact,47.129,13.4782,+1:00
70,SOTA-Summits,OE/TI-598 Griess,Tirol 2581m,,,,,,GPS,,,,Exact,47.175,10.3325,+1:00
70,SOTA-Summits,OE/ST-033 Grimmi,Steierma 2351m,,,,,,GPS,,,,Exact,47.5206,14.0172,+1:00
70,SOTA-Summits,OE/SB-218 Grinnb,Salzburg 1774m,,,,,,GPS,,,,Exact,47.3808,12.9789,+1:00
70,SOTA-Summits,OE/NO-240 Groman,Niederoes 1076m,,,,,,GPS,,,,Exact,47.9538,15.3422,+1:00
70,SOTA-Summits,OE/TI-921 Grosse,Tirol 2696m,,,,,,GPS,,,,Exact,47.3458,11.4533,+1:00
70,SOTA-Summits,OE/TI-787 Grosse,Tirol 3101m,,,,,,GPS,,,,Exact,46.9067,12.1775,+1:00
70,SOTA-Summits,OE/TI-963 Grosse,Tirol 2585m,,,,,,GPS,,,,Exact,47.4117,11.3667,+1:00
70,SOTA-Summits,OE/TI-878 Grosse,Tirol 2827m,,,,,,GPS,,,,Exact,47.2492,10.6158,+1:00
70,SOTA-Summits,OE/KT-283 Grosse,Kaernten 3134m,,,,,,GPS,,,,Exact,46.958,12.8281,+1:00
70,SOTA-Summits,OE/TI-761 Grosse,Tirol 3201m,,,,,,GPS,,,,Exact,47.02,11.7533,+1:00
70,SOTA-Summits,OE/ST-519 Grosse,Steierma 2023m,,,,,,GPS,,,,Exact,47.6175,15.0267,+1:00
70,SOTA-Summits,OE/TI-741 Grosse,Tirol 3314m,,,,,,GPS,,,,Exact,47.0597,12.4056,+1:00
70,SOTA-Summits,OE/ST-574 Grosse,Steierma 1131m,,,,,,GPS,,,,Exact,47.7875,15.265,+1:00
70,SOTA-Summits,OE/ST-511 Grosse,Steierma 2202m,,,,,,GPS,,,,Exact,47.46,13.7317,+1:00
70,SOTA-Summits,OE/TI-707 Grosse,Tirol 3480m,,,,,,GPS,,,,Exact,46.9925,11.7817,+1:00
70,SOTA-Summits,OE/ST-506 Grosse,Steierma 2335m,,,,,,GPS,,,,Exact,47.5539,14.6126,+1:00
70,SOTA-Summits,OE/TI-695 Grosse,Tirol 3549m,,,,,,GPS,,,,Exact,46.8467,10.9592,+1:00
70,SOTA-Summits,OE/TI-986 Grosse,Tirol 2366m,,,,,,GPS,,,,Exact,47.3333,12.2958,+1:00
70,SOTA-Summits,OE/TI-833 Grosse,Tirol 2998m,,,,,,GPS,,,,Exact,46.8575,10.5958,+1:00
70,SOTA-Summits,OE/ST-572 Grosse,Steierma 1185m,,,,,,GPS,,,,Exact,47.705,14.7609,+1:00
70,SOTA-Summits,OE/VB-178 Grosse,Vorarlbe 2449m,,,,,,GPS,,,,Exact,47.1008,9.8058,+1:00
70,SOTA-Summits,OE/TI-943 Grossg,Tirol 2639m,,,,,,GPS,,,,Exact,47.1017,10.4083,+1:00
70,SOTA-Summits,OE/ST-507 Grossh,Steierma 2315m,,,,,,GPS,,,,Exact,47.3187,14.265,+1:00
70,SOTA-Summits,OE/ST-547 Grossk,Steierma 1410m,,,,,,GPS,,,,Exact,47.64,14.8266,+1:00
70,SOTA-Summits,OE/TI-947 Grosss,Tirol 2632m,,,,,,GPS,,,,Exact,47.2425,10.4917,+1:00
70,SOTA-Summits,OE/OO-425 Grossb,Oberoeste 782m,,,,,,GPS,,,,Exact,47.9217,14.6044,+1:00
70,SOTA-Summits,OE/TI-331 Grosse,Tirol 2309m,,,,,,GPS,,,,Exact,47.3414,12.0269,+1:00
70,SOTA-Summits,OE/SB-044 Grosse,Salzburg 2458m,,,,,,GPS,,,,Exact,47.4939,13.5111,+1:00
70,SOTA-Summits,OE/TI-246 Grosse,Tirol 2486m,,,,,,GPS,,,,Exact,46.7664,12.7831,+1:00
70,SOTA-Summits,OE/VB-089 Grosse,Vorarlbe 2659m,,,,,,GPS,,,,Exact,47.1544,10.1358,+1:00
70,SOTA-Summits,OE/SB-356 Grosse,Salzburg 2361m,,,,,,GPS,,,,Exact,47.2317,13.5567,+1:00
70,SOTA-Summits,OE/TI-146 Grosse,Tirol 2689m,,,,,,GPS,,,,Exact,46.6756,12.5242,+1:00
70,SOTA-Summits,OE/VB-172 Grosse,Vorarlbe 2472m,,,,,,GPS,,,,Exact,47.2364,10.1975,+1:00
70,SOTA-Summits,OE/TI-124 Grosse,Tirol 2770m,,,,,,GPS,,,,Exact,46.7667,12.8117,+1:00
70,SOTA-Summits,OE/SB-394 Grosse,Salzburg 2427m,,,,,,GPS,,,,Exact,47.1156,13.5119,+1:00
70,SOTA-Summits,OE/TI-137 Grosse,Tirol 2726m,,,,,,GPS,,,,Exact,47.3444,11.5197,+1:00
70,SOTA-Summits,OE/ST-055 Grosse,Steierma 2224m,,,,,,GPS,,,,Exact,47.6106,14.5969,+1:00
70,SOTA-Summits,OE/SB-001 Grosse,Salzburg 3396m,,,,,,GPS,,,,Exact,47.1311,12.7316,+1:00
70,SOTA-Summits,OE/ST-018 Grosse,Steierma 2448m,,,,,,GPS,,,,Exact,47.4436,14.4039,+1:00
70,SOTA-Summits,OE/VB-528 Grosse,Vorarlbe 2830m,,,,,,GPS,,,,Exact,47.0248,9.81,+1:00
70,SOTA-Summits,OE/NO-065 Grosse,Niederoes 1186m,,,,,,GPS,,,,Exact,47.7806,15.72,+1:00
70,SOTA-Summits,OE/TI-022 Grosse,Tirol 3360m,,,,,,GPS,,,,Exact,47.0931,12.3086,+1:00
70,SOTA-Summits,OE/NO-255 Grosse,Niederoes 1006m,,,,,,GPS,,,,Exact,47.8873,15.8398,+1:00
70,SOTA-Summits,OE/SB-416 Grosse,Salzburg 1999m,,,,,,GPS,,,,Exact,47.5265,13.3324,+1:00
70,SOTA-Summits,OE/ST-034 Grosse,Steierma 2337m,,,,,,GPS,,,,Exact,47.3908,14.5394,+1:00
70,SOTA-Summits,OE/OO-227 Grosse,Oberoeste 1724m,,,,,,GPS,,,,Exact,47.7647,14.425,+1:00
70,SOTA-Summits,OE/ST-444 Grosse,Steierma 1881m,,,,,,GPS,,,,Exact,47.6708,13.855,+1:00
70,SOTA-Summits,OE/KT-255 Grosse,Kaernten 3076m,,,,,,GPS,,,,Exact,47.0697,13.4008,+1:00
70,SOTA-Summits,OE/NO-211 Grosse,Niederoes 1582m,,,,,,GPS,,,,Exact,47.8292,15.06,+1:00
70,SOTA-Summits,OE/OO-388 Grosse,Oberoeste 2389m,,,,,,GPS,,,,Exact,47.6733,14.0469,+1:00
70,SOTA-Summits,OE/KT-009 Grosse,Kaernten 3251m,,,,,,GPS,,,,Exact,46.9672,12.7783,+1:00
70,SOTA-Summits,OE/SB-027 Grosse,Salzburg 2594m,,,,,,GPS,,,,Exact,47.5125,12.8858,+1:00
70,SOTA-Summits,OE/OO-022 Grosse,Oberoeste 1862m,,,,,,GPS,,,,Exact,47.7975,13.6781,+1:00
70,SOTA-Summits,OE/NO-220 Grosse,Niederoes 1291m,,,,,,GPS,,,,Exact,47.9014,15.3956,+1:00
70,SOTA-Summits,OE/NO-130 Grosse,Niederoes 771m,,,,,,GPS,,,,Exact,47.8844,15.9786,+1:00
70,SOTA-Summits,OE/ST-009 Grosse,Steierma 2599m,,,,,,GPS,,,,Exact,47.3206,13.9761,+1:00
70,SOTA-Summits,OE/NO-234 Grosse,Niederoes 1109m,,,,,,GPS,,,,Exact,47.8681,15.2805,+1:00
70,SOTA-Summits,OE/OO-149 Grosse,Oberoeste 2863m,,,,,,GPS,,,,Exact,47.4661,13.64,+1:00
70,SOTA-Summits,OE/ST-219 Grosse,Steierma 1574m,,,,,,GPS,,,,Exact,47.7075,15.4447,+1:00
70,SOTA-Summits,OE/TI-091 Grosse,Tirol 2900m,,,,,,GPS,,,,Exact,47.1361,12.5664,+1:00
70,SOTA-Summits,OE/OO-376 Grosse,Oberoeste 899m,,,,,,GPS,,,,Exact,47.9217,14.2269,+1:00
70,SOTA-Summits,OE/TI-576 Grosse,Tirol 3379m,,,,,,GPS,,,,Exact,47.0325,11.9156,+1:00
70,SOTA-Summits,OE/NO-082 Grosse,Niederoes 1053m,,,,,,GPS,,,,Exact,47.8547,15.9114,+1:00
70,SOTA-Summits,OE/NO-046 Grosse,Niederoes 1358m,,,,,,GPS,,,,Exact,47.63,15.915,+1:00
70,SOTA-Summits,OE/NO-080 Grosse,Niederoes 1061m,,,,,,GPS,,,,Exact,48.3025,15.1017,+1:00
70,SOTA-Summits,OE/ST-222 Grosse,Steierma 1555m,,,,,,GPS,,,,Exact,47.5622,15.8261,+1:00
70,SOTA-Summits,OE/VB-001 Grosse,Vorarlbe 3312m,,,,,,GPS,,,,Exact,46.8442,10.1186,+1:00
70,SOTA-Summits,OE/SB-348 Grosse,Salzburg 2501m,,,,,,GPS,,,,Exact,47.2275,13.4917,+1:00
70,SOTA-Summits,OE/OO-004 Grosse,Oberoeste 2515m,,,,,,GPS,,,,Exact,47.7167,14.0631,+1:00
70,SOTA-Summits,OE/OO-011 Grosse,Oberoeste 2244m,,,,,,GPS,,,,Exact,47.6525,14.3972,+1:00
70,SOTA-Summits,OE/ST-596 Grosse,Steierma 2022m,,,,,,GPS,,,,Exact,47.7141,13.8212,+1:00
70,SOTA-Summits,OE/ST-141 Grosse,Steierma 1895m,,,,,,GPS,,,,Exact,47.4419,14.6375,+1:00
70,SOTA-Summits,OE/OO-390 Grosse,Oberoeste 1850m,,,,,,GPS,,,,Exact,47.5369,13.5647,+1:00
70,SOTA-Summits,OE/NO-016 Grosse,Niederoes 1639m,,,,,,GPS,,,,Exact,47.7519,15.6389,+1:00
70,SOTA-Summits,OE/KT-077 Grosse,Kaernten 2140m,,,,,,GPS,,,,Exact,46.7867,14.9717,+1:00
70,SOTA-Summits,OE/OO-349 Grosse,Oberoeste 1396m,,,,,,GPS,,,,Exact,47.8286,14.2261,+1:00
70,SOTA-Summits,OE/NO-037 Grosse,Niederoes 1400m,,,,,,GPS,,,,Exact,47.8389,15.3839,+1:00
70,SOTA-Summits,OE/TI-089 Grosse,Tirol 2902m,,,,,,GPS,,,,Exact,46.9956,11.1603,+1:00
70,SOTA-Summits,OE/SB-417 Grosse,Salzburg 1979m,,,,,,GPS,,,,Exact,47.632,12.7864,+1:00
70,SOTA-Summits,OE/TI-622 Grosse,Tirol 2379m,,,,,,GPS,,,,Exact,47.37,10.3889,+1:00
70,SOTA-Summits,OE/OO-201 Grosse,Oberoeste 2064m,,,,,,GPS,,,,Exact,47.7158,13.9033,+1:00
70,SOTA-Summits,OE/NO-017 Grosse,Niederoes 1639m,,,,,,GPS,,,,Exact,47.7533,15.2,+1:00
70,SOTA-Summits,OE/TI-120 Grosse,Tirol 2776m,,,,,,GPS,,,,Exact,46.9558,12.5153,+1:00
70,SOTA-Summits,OE/ST-096 Grosse,Steierma 2071m,,,,,,GPS,,,,Exact,47.3528,14.0808,+1:00
70,SOTA-Summits,OE/TI-077 Grosse,Tirol 2946m,,,,,,GPS,,,,Exact,46.8689,12.3928,+1:00
70,SOTA-Summits,OE/ST-384 Grosse,Steierma 2602m,,,,,,GPS,,,,Exact,47.2781,13.7867,+1:00
70,SOTA-Summits,OE/SB-032 Grosse,Salzburg 2526m,,,,,,GPS,,,,Exact,47.2106,13.6153,+1:00
70,SOTA-Summits,OE/SB-236 Grosse,Salzburg 1706m,,,,,,GPS,,,,Exact,47.5828,12.7494,+1:00
70,SOTA-Summits,OE/SB-459 Grosse,Salzburg 2284m,,,,,,GPS,,,,Exact,47.6018,12.7839,+1:00
70,SOTA-Summits,OE/ST-173 Grosse,Steierma 1764m,,,,,,GPS,,,,Exact,47.6719,14.5528,+1:00
70,SOTA-Summits,OE/SB-035 Grosse,Salzburg 2511m,,,,,,GPS,,,,Exact,47.5383,12.6606,+1:00
70,SOTA-Summits,OE/SB-391 Grosse,Salzburg 2488m,,,,,,GPS,,,,Exact,47.541,12.6433,+1:00
70,SOTA-Summits,OE/SB-339 Grosse,Salzburg 3564m,,,,,,GPS,,,,Exact,47.1567,12.755,+1:00
70,SOTA-Summits,OE/KT-001 Grossg,Kaernten 3798m,,,,,,GPS,,,,Exact,47.0744,12.6939,+1:00
70,SOTA-Summits,OE/TI-003 Grossv,Tirol 3657m,,,,,,GPS,,,,Exact,47.1089,12.3461,+1:00
70,SOTA-Summits,OE/OO-161 Grossw,Oberoeste 2415m,,,,,,GPS,,,,Exact,47.5028,13.5136,+1:00
70,SOTA-Summits,OE/TI-932 Gruben,Tirol 2663m,,,,,,GPS,,,,Exact,47.3808,11.5217,+1:00
70,SOTA-Summits,OE/TI-992 Gruben,Tirol 2336m,,,,,,GPS,,,,Exact,46.9667,11.4092,+1:00
70,SOTA-Summits,OE/KT-313 Gruben,Kaernten 2671m,,,,,,GPS,,,,Exact,46.7489,12.8138,+1:00
70,SOTA-Summits,OE/TI-769 Gruben,Tirol 3173m,,,,,,GPS,,,,Exact,47.1183,11.085,+1:00
70,SOTA-Summits,OE/SB-227 Gruber,Salzburg 1732m,,,,,,GPS,,,,Exact,47.675,13.2983,+1:00
70,SOTA-Summits,OE/SB-223 Grubho,Salzburg 1747m,,,,,,GPS,,,,Exact,47.5964,12.6614,+1:00
70,SOTA-Summits,OE/TI-937 Grubig,Tirol 2586m,,,,,,GPS,,,,Exact,47.2128,10.6139,+1:00
70,SOTA-Summits,OE/NO-223 Groess,Niederoes 1188m,,,,,,GPS,,,,Exact,47.8067,15.8706,+1:00
70,SOTA-Summits,OE/NO-289 Groess,Niederoes 1102m,,,,,,GPS,,,,Exact,47.8708,15.6825,+1:00
70,SOTA-Summits,OE/NO-304 Groess,Niederoes 887m,,,,,,GPS,,,,Exact,47.8667,16.0183,+1:00
70,SOTA-Summits,OM/BB-051 Grun,Banskoby 1011m,,,,,,GPS,,,,Exact,48.8284,20.1352,+1:00
70,SOTA-Summits,OE/TI-858 Gruebe,Tirol 2894m,,,,,,GPS,,,,Exact,47.0042,10.3883,+1:00
70,SOTA-Summits,OE/OO-217 Gruena,Oberoeste 1821m,,,,,,GPS,,,,Exact,47.8144,13.6397,+1:00
70,SOTA-Summits,OE/TI-564 Gruenb,Tirol 1497m,,,,,,GPS,,,,Exact,47.2817,10.9147,+1:00
70,SOTA-Summits,OE/SB-131 Gruend,Salzburg 2168m,,,,,,GPS,,,,Exact,47.2494,13.2819,+1:00
70,SOTA-Summits,OE/VB-451 Gruene,Vorarlbe 1725m,,,,,,GPS,,,,Exact,47.3592,10.0364,+1:00
70,SOTA-Summits,OE/VB-353 Gruenh,Vorarlbe 2039m,,,,,,GPS,,,,Exact,47.3239,10.0792,+1:00
70,SOTA-Summits,OE/TI-933 Gruens,Tirol 2661m,,,,,,GPS,,,,Exact,47.3492,10.9208,+1:00
70,SOTA-Summits,OE/NO-112 Gruent,Niederoes 886m,,,,,,GPS,,,,Exact,48.0203,15.3275,+1:00
70,SOTA-Summits,OE/TI-749 Gsallk,Tirol 3277m,,,,,,GPS,,,,Exact,47.0375,10.805,+1:00
70,SOTA-Summits,OE/ST-371 Gschie,Steierma 1142m,,,,,,GPS,,,,Exact,47.2892,15.4117,+1:00
70,SOTA-Summits,OE/OO-261 Gschir,Oberoeste 1410m,,,,,,GPS,,,,Exact,47.7517,13.8673,+1:00
70,SOTA-Summits,OE/TI-845 Gschni,Tirol 2946m,,,,,,GPS,,,,Exact,46.99,11.3458,+1:00
70,SOTA-Summits,OE/TI-690 Gschwa,Tirol 1495m,,,,,,GPS,,,,Exact,47.3139,11.1789,+1:00
70,SOTA-Summits,OE/ST-595 Gschwe,Steierma 1000m,,,,,,GPS,,,,Exact,47.2852,15.3456,+1:00
70,SOTA-Summits,OE/OO-067 Gspran,Oberoeste 1368m,,,,,,GPS,,,,Exact,47.7444,13.6003,+1:00
70,SOTA-Summits,OE/ST-470 Gstatt,Steierma 1390m,,,,,,GPS,,,,Exact,47.5973,14.6647,+1:00
70,SOTA-Summits,OE/ST-079 Gstode,Steierma 2140m,,,,,,GPS,,,,Exact,47.1422,13.9931,+1:00
70,SOTA-Summits,OE/ST-343 Gsuchm,Steierma 2116m,,,,,,GPS,,,,Exact,47.5486,14.6672,+1:00
70,SOTA-Summits,OE/TI-392 Guffer,Tirol 2194m,,,,,,GPS,,,,Exact,47.5464,11.7886,+1:00
70,SOTA-Summits,OE/OO-410 Gugler,Oberoeste 1224m,,,,,,GPS,,,,Exact,47.7488,14.4563,+1:00
70,SOTA-Summits,OE/ST-053 Gumpen,Steierma 2226m,,,,,,GPS,,,,Exact,47.3972,14.0153,+1:00
70,SOTA-Summits,OE/TL-002 Gumpen,Tirol 2176m,,,,,,GPS,,,,Exact,47.4067,11.54,+1:00
70,SOTA-Summits,OE/OO-385 Gunst,Oberoeste 787m,,,,,,GPS,,,,Exact,47.7291,14.312,+1:00
70,SOTA-Summits,OE/SB-450 Gurlsp,Salzburg 1158m,,,,,,GPS,,,,Exact,47.788,13.1433,+1:00
70,SOTA-Summits,OE/ST-558 Gutenb,Steierma 1313m,,,,,,GPS,,,,Exact,47.683,15.1744,+1:00
70,SOTA-Summits,OE/OO-119 Goeblb,Oberoeste 801m,,,,,,GPS,,,,Exact,48.0931,13.5261,+1:00
70,SOTA-Summits,OE/TI-078 Goelbn,Tirol 2943m,,,,,,GPS,,,,Exact,46.8244,12.5044,+1:00
70,SOTA-Summits,OE/NO-008 Goelle,Niederoes 1766m,,,,,,GPS,,,,Exact,47.7936,15.4919,+1:00
70,SOTA-Summits,OE/NO-109 Goesin,Niederoes 898m,,,,,,GPS,,,,Exact,47.7383,15.9889,+1:00
70,SOTA-Summits,OE/KT-364 Goesse,Kaernten 1171m,,,,,,GPS,,,,Exact,46.7538,14.1994,+1:00
70,SOTA-Summits,OE/ST-059 Goesse,Steierma 2214m,,,,,,GPS,,,,Exact,47.4486,14.9,+1:00
70,SOTA-Summits,OE/NO-186 Haberg,Niederoes 414m,,,,,,GPS,,,,Exact,48.4842,16.065,+1:00
70,SOTA-Summits,OE/NO-246 Haberk,Niederoes 1041m,,,,,,GPS,,,,Exact,47.8875,15.7992,+1:00
70,SOTA-Summits,OE/TI-029 Habich,Tirol 3277m,,,,,,GPS,,,,Exact,47.0439,11.2897,+1:00
70,SOTA-Summits,OE/ST-369 Hadern,Steierma 1184m,,,,,,GPS,,,,Exact,46.6797,15.1294,+1:00
70,SOTA-Summits,OE/NO-281 Haders,Niederoes 441m,,,,,,GPS,,,,Exact,48.3386,16.2582,+1:00
70,SOTA-Summits,OE/KT-362 Hahnbe,Kaernten 1256m,,,,,,GPS,,,,Exact,46.8051,14.1056,+1:00
70,SOTA-Summits,OE/ST-578 Haidac,Steierma 1096m,,,,,,GPS,,,,Exact,47.6975,14.65,+1:00
70,SOTA-Summits,OE/TL-001 Haidac,Tirol 2192m,,,,,,GPS,,,,Exact,47.4442,11.78,+1:00
70,SOTA-Summits,OE/ST-546 Haindl,Steierma 1435m,,,,,,GPS,,,,Exact,47.5744,14.5479,+1:00
70,SOTA-Summits,OE/TI-783 Hairla,Tirol 3040m,,,,,,GPS,,,,Exact,47.0986,10.8606,+1:00
70,SOTA-Summits,OM/PO-037 Hajdos,Presovsk 921m,,,,,,GPS,,,,Exact,49.0698,22.341,+1:00
70,SOTA-Summits,OM/BB-059 Hajnic,Banskoby 869m,,,,,,GPS,,,,Exact,48.6742,18.7477,+1:00
70,SOTA-Summits,OE/TI-473 Haller,Tirol 1966m,,,,,,GPS,,,,Exact,47.3194,11.4844,+1:00
70,SOTA-Summits,OE/TI-510 Halser,Tirol 1863m,,,,,,GPS,,,,Exact,47.5914,11.7808,+1:00
70,SOTA-Summits,OE/NO-233 Haltbe,Niederoes 1114m,,,,,,GPS,,,,Exact,47.808,15.9173,+1:00
70,SOTA-Summits,OE/KT-413 Hammer,Kaernten 672m,,,,,,GPS,,,,Exact,46.6794,14.4652,+1:00
70,SOTA-Summits,OE/TI-944 Hammer,Tirol 2637m,,,,,,GPS,,,,Exact,47.0775,11.3517,+1:00
70,SOTA-Summits,OE/ST-348 Handal,Steierma 1853m,,,,,,GPS,,,,Exact,46.8467,15.02,+1:00
70,SOTA-Summits,OE/NO-045 Handle,Niederoes 1370m,,,,,,GPS,,,,Exact,47.8256,15.7397,+1:00
70,SOTA-Summits,OE/ST-418 Hanegg,Steierma 1088m,,,,,,GPS,,,,Exact,47.2543,15.2777,+1:00
70,SOTA-Summits,OE/TI-975 Hanger,Tirol 2472m,,,,,,GPS,,,,Exact,47.1967,12.085,+1:00
70,SOTA-Summits,OE/OO-110 Hansbe,Oberoeste 848m,,,,,,GPS,,,,Exact,48.4739,14.1458,+1:00
70,SOTA-Summits,OE/ST-580 Hanser,Steierma 1085m,,,,,,GPS,,,,Exact,47.6812,14.9418,+1:00
70,SOTA-Summits,OE/ST-399 Hartin,Steierma 1539m,,,,,,GPS,,,,Exact,47.5964,14.3094,+1:00
70,SOTA-Summits,OE/KT-272 Haselb,Kaernten 855m,,,,,,GPS,,,,Exact,46.5778,14.3772,+1:00
70,SOTA-Summits,OE/ST-445 Haselk,Steierma 1870m,,,,,,GPS,,,,Exact,47.5385,14.6986,+1:00
70,SOTA-Summits,OE/NO-073 Hasels,Niederoes 1092m,,,,,,GPS,,,,Exact,47.8492,15.6269,+1:00
70,SOTA-Summits,OE/OO-102 Haugst,Oberoeste 895m,,,,,,GPS,,,,Exact,48.5083,13.6703,+1:00
70,SOTA-Summits,OE/SB-294 Haunsb,Salzburg 835m,,,,,,GPS,,,,Exact,47.9151,12.9965,+1:00
70,SOTA-Summits,OE/TI-942 Hauptg,Tirol 2639m,,,,,,GPS,,,,Exact,47.3142,10.7342,+1:00
70,SOTA-Summits,OM/PO-011 Havran,Presovsk 2152m,,,,,,GPS,,,,Exact,49.2485,20.1977,+1:00
70,SOTA-Summits,OM/TN-020 Havran,Trencian 835m,,,,,,GPS,,,,Exact,49.1417,18.5503,+1:00
70,SOTA-Summits,OE/SB-141 Hassec,Salzburg 2119m,,,,,,GPS,,,,Exact,47.2817,13.1225,+1:00
70,SOTA-Summits,OM/PO-050 Halago,Presovsk 642m,,,,,,GPS,,,,Exact,49.1019,21.3782,+1:00
70,SOTA-Summits,OE/ST-162 Hechls,Steierma 1814m,,,,,,GPS,,,,Exact,47.5733,14.0667,+1:00
70,SOTA-Summits,OE/NO-224 Hegerb,Niederoes 1179m,,,,,,GPS,,,,Exact,47.9026,15.6672,+1:00
70,SOTA-Summits,OE/ST-477 Heigge,Steierma 1098m,,,,,,GPS,,,,Exact,47.1594,15.2389,+1:00
70,SOTA-Summits,OE/OO-426 Heilig,Oberoeste 776m,,,,,,GPS,,,,Exact,47.8817,14.7019,+1:00
70,SOTA-Summits,OE/VB-293 Heiter,Vorarlbe 2188m,,,,,,GPS,,,,Exact,47.2817,10.0903,+1:00
70,SOTA-Summits,OE/OO-099 Helmet,Oberoeste 924m,,,,,,GPS,,,,Exact,48.4531,14.4022,+1:00
70,SOTA-Summits,OE/ST-500 Hemmer,Steierma 2443m,,,,,,GPS,,,,Exact,47.2247,13.9359,+1:00
70,SOTA-Summits,OE/NO-321 Hengst,Niederoes 571m,,,,,,GPS,,,,Exact,48.1825,15.0008,+1:00
70,SOTA-Summits,OE/NO-048 Hennes,Niederoes 1334m,,,,,,GPS,,,,Exact,47.8925,15.3597,+1:00
70,SOTA-Summits,OE/TI-977 Heretk,Tirol 2440m,,,,,,GPS,,,,Exact,46.6733,12.5692,+1:00
70,SOTA-Summits,OE/WI-001 Herman,Wien 542m,,,,,,GPS,,,,Exact,48.2703,16.2936,+1:00
70,SOTA-Summits,OE/SB-289 Heuber,Salzburg 901m,,,,,,GPS,,,,Exact,47.8314,13.1078,+1:00
70,SOTA-Summits,OE/ST-112 Heukup,Steierma 2007m,,,,,,GPS,,,,Exact,47.6892,15.6892,+1:00
70,SOTA-Summits,OE/TI-054 Hexenk,Tirol 3035m,,,,,,GPS,,,,Exact,47.0211,10.4692,+1:00
70,SOTA-Summits,OE/ST-070 Hexent,Steierma 2172m,,,,,,GPS,,,,Exact,47.6458,14.4811,+1:00
70,SOTA-Summits,OE/NO-322 Hiesbe,Niederoes 558m,,,,,,GPS,,,,Exact,48.1854,15.312,+1:00
70,SOTA-Summits,OE/OO-380 Hiesel,Oberoeste 849m,,,,,,GPS,,,,Exact,47.8736,14.5322,+1:00
70,SOTA-Summits,OE/ST-566 Himbee,Steierma 1222m,,,,,,GPS,,,,Exact,47.5856,14.5541,+1:00
70,SOTA-Summits,OE/ST-472 Himber,Steierma 1345m,,,,,,GPS,,,,Exact,47.4245,15.1002,+1:00
70,SOTA-Summits,OE/ST-090 Himmel,Steierma 2096m,,,,,,GPS,,,,Exact,47.4269,14.6031,+1:00
70,SOTA-Summits,OE/NO-050 Hinter,Niederoes 1311m,,,,,,GPS,,,,Exact,47.9719,15.6106,+1:00
70,SOTA-Summits,OE/TI-705 Hinter,Tirol 3485m,,,,,,GPS,,,,Exact,46.8225,10.7642,+1:00
70,SOTA-Summits,OE/TI-997 Hinter,Tirol 2281m,,,,,,GPS,,,,Exact,47.5667,12.315,+1:00
70,SOTA-Summits,OE/TI-917 Hinter,Tirol 2723m,,,,,,GPS,,,,Exact,47.2725,10.6792,+1:00
70,SOTA-Summits,OE/TI-693 Hinter,Tirol 3624m,,,,,,GPS,,,,Exact,46.7733,10.915,+1:00
70,SOTA-Summits,OE/TI-758 Hinter,Tirol 3225m,,,,,,GPS,,,,Exact,47.0575,11.9758,+1:00
70,SOTA-Summits,OE/TI-744 Hinter,Tirol 3295m,,,,,,GPS,,,,Exact,46.8908,10.775,+1:00
70,SOTA-Summits,OE/TI-677 Hinter,Tirol 3624m,,,,,,GPS,,,,Exact,46.8861,10.8497,+1:00
70,SOTA-Summits,OE/TI-713 Hinter,Tirol 3438m,,,,,,GPS,,,,Exact,46.9125,10.8617,+1:00
70,SOTA-Summits,OE/TI-682 Hinter,Tirol 3225m,,,,,,GPS,,,,Exact,47.0042,11.0964,+1:00
70,SOTA-Summits,OE/SB-125 Hinter,Salzburg 2190m,,,,,,GPS,,,,Exact,47.3067,13.5383,+1:00
70,SOTA-Summits,OE/TI-965 Hinter,Tirol 2578m,,,,,,GPS,,,,Exact,47.0125,10.5442,+1:00
70,SOTA-Summits,OE/SB-385 Hinter,Salzburg 2562m,,,,,,GPS,,,,Exact,47.2182,12.6366,+1:00
70,SOTA-Summits,OE/TI-886 Hinter,Tirol 2718m,,,,,,GPS,,,,Exact,47.1889,10.4792,+1:00
70,SOTA-Summits,OE/TI-708 Hinter,Tirol 3470m,,,,,,GPS,,,,Exact,46.8017,11.0442,+1:00
70,SOTA-Summits,OE/TI-714 Hinter,Tirol 3424m,,,,,,GPS,,,,Exact,46.8292,10.9592,+1:00
70,SOTA-Summits,OE/SB-403 Hinter,Salzburg 2308m,,,,,,GPS,,,,Exact,47.5871,13.1004,+1:00
70,SOTA-Summits,OE/TI-869 Hinter,Tirol 2853m,,,,,,GPS,,,,Exact,47.0158,10.4242,+1:00
70,SOTA-Summits,OE/TI-470 Hinter,Tirol 1986m,,,,,,GPS,,,,Exact,47.5986,11.9497,+1:00
70,SOTA-Summits,OE/ST-100 Hinter,Steierma 2054m,,,,,,GPS,,,,Exact,47.3867,14.2131,+1:00
70,SOTA-Summits,OE/NO-309 Hirsch,Niederoes 857m,,,,,,GPS,,,,Exact,47.9583,14.6975,+1:00
70,SOTA-Summits,OE/VB-420 Hirsch,Vorarlbe 1834m,,,,,,GPS,,,,Exact,47.3594,9.9992,+1:00
70,SOTA-Summits,OE/VB-509 Hirsch,Vorarlbe 1095m,,,,,,GPS,,,,Exact,47.5222,9.8222,+1:00
70,SOTA-Summits,OE/OO-200 Hirsch,Oberoeste 2068m,,,,,,GPS,,,,Exact,47.6275,14.1225,+1:00
70,SOTA-Summits,OE/SB-096 Hirsch,Salzburg 2252m,,,,,,GPS,,,,Exact,47.2329,12.9427,+1:00
70,SOTA-Summits,OE/ST-407 Hirsch,Steierma 1415m,,,,,,GPS,,,,Exact,47.5936,14.2547,+1:00
70,SOTA-Summits,OE/TI-138 Hirzer,Tirol 2725m,,,,,,GPS,,,,Exact,47.2178,11.6631,+1:00
70,SOTA-Summits,OE/VB-501 Hittis,Vorarlbe 1328m,,,,,,GPS,,,,Exact,47.4472,9.99,+1:00
70,SOTA-Summits,OM/ZA-087 Hlacov,Zilinsky 1310m,,,,,,GPS,,,,Exact,48.9999,19.4909,+1:00
70,SOTA-Summits,OM/PO-014 Hlupy,Presovsk 2061m,,,,,,GPS,,,,Exact,49.2369,20.2203,+1:00
70,SOTA-Summits,OM/ZA-049 Hnilic,Zilinsky 1218m,,,,,,GPS,,,,Exact,49.0266,18.7402,+1:00
70,SOTA-Summits,OE/TI-604 Hobarj,Tirol 2512m,,,,,,GPS,,,,Exact,47.205,11.7036,+1:00
70,SOTA-Summits,OM/ZA-102 Hoblik,Zilinsky 933m,,,,,,GPS,,,,Exact,49.1509,18.8131,+1:00
70,SOTA-Summits,OE/OO-025 Hoch K,Oberoeste 1833m,,,,,,GPS,,,,Exact,47.6122,13.5672,+1:00
70,SOTA-Summits,OE/OO-348 Hoch T,Oberoeste 1435m,,,,,,GPS,,,,Exact,47.8167,13.8592,+1:00
70,SOTA-Summits,OE/TI-113 Hochal,Tirol 2797m,,,,,,GPS,,,,Exact,46.8831,12.4578,+1:00
70,SOTA-Summits,OE/KT-003 Hochal,Kaernten 3360m,,,,,,GPS,,,,Exact,47.0153,13.3203,+1:00
70,SOTA-Summits,OE/ST-191 Hochan,Steierma 1682m,,,,,,GPS,,,,Exact,47.6058,15.3169,+1:00
70,SOTA-Summits,OE/KT-007 Hochar,Kaernten 3254m,,,,,,GPS,,,,Exact,47.0758,12.9372,+1:00
70,SOTA-Summits,OE/VB-231 Hochbe,Vorarlbe 2324m,,,,,,GPS,,,,Exact,47.2472,10.0692,+1:00
70,SOTA-Summits,OE/KT-265 Hochbi,Kaernten 1220m,,,,,,GPS,,,,Exact,46.6633,13.825,+1:00
70,SOTA-Summits,OE/OO-408 Hochbr,Oberoeste 1242m,,,,,,GPS,,,,Exact,47.7456,14.6072,+1:00
70,SOTA-Summits,OE/OO-075 Hochbu,Oberoeste 1273m,,,,,,GPS,,,,Exact,47.9169,14.295,+1:00
70,SOTA-Summits,OE/OO-379 Hochbu,Oberoeste 871m,,,,,,GPS,,,,Exact,48.6403,13.9258,+1:00
70,SOTA-Summits,OE/KT-161 Hochec,Kaernten 1338m,,,,,,GPS,,,,Exact,46.7711,14.1625,+1:00
70,SOTA-Summits,OE/NO-085 Hochec,Niederoes 1037m,,,,,,GPS,,,,Exact,47.9964,15.9519,+1:00
70,SOTA-Summits,OE/SB-383 Hochec,Salzburg 2638m,,,,,,GPS,,,,Exact,47.2363,13.7236,+1:00
70,SOTA-Summits,OE/ST-361 Hochec,Steierma 1418m,,,,,,GPS,,,,Exact,47.6328,15.545,+1:00
70,SOTA-Summits,OE/ST-419 Hochec,Steierma 1072m,,,,,,GPS,,,,Exact,47.7211,14.6089,+1:00
70,SOTA-Summits,OE/ST-543 Hochec,Steierma 1441m,,,,,,GPS,,,,Exact,47.57,14.7892,+1:00
70,SOTA-Summits,OE/OO-345 Hoched,Oberoeste 1424m,,,,,,GPS,,,,Exact,47.8272,14.09,+1:00
70,SOTA-Summits,OE/TI-251 Hocheg,Tirol 2477m,,,,,,GPS,,,,Exact,46.6936,12.5344,+1:00
70,SOTA-Summits,OE/SB-366 Hochei,Salzburg 3206m,,,,,,GPS,,,,Exact,47.1562,12.6733,+1:00
70,SOTA-Summits,OE/TI-702 Hochfe,Tirol 3509m,,,,,,GPS,,,,Exact,46.9725,11.7275,+1:00
70,SOTA-Summits,OE/SB-341 Hochfe,Salzburg 2687m,,,,,,GPS,,,,Exact,47.1872,13.4944,+1:00
70,SOTA-Summits,OE/TI-625 Hochfe,Tirol 2350m,,,,,,GPS,,,,Exact,47.1833,11.9247,+1:00
70,SOTA-Summits,OE/OO-069 Hochfi,Oberoeste 1338m,,,,,,GPS,,,,Exact,48.7364,13.9211,+1:00
70,SOTA-Summits,OE/TI-721 Hochfi,Tirol 3403m,,,,,,GPS,,,,Exact,46.8267,11.0808,+1:00
70,SOTA-Summits,OE/OO-450 Hochfo,Oberoeste 1154m,,,,,,GPS,,,,Exact,47.7703,14.1085,+1:00
70,SOTA-Summits,OE/TI-080 Hochga,Tirol 2922m,,,,,,GPS,,,,Exact,47.1506,12.5217,+1:00
70,SOTA-Summits,OE/SB-247 Hochgl,Salzburg 1590m,,,,,,GPS,,,,Exact,47.3478,13.1397,+1:00
70,SOTA-Summits,OE/TI-966 Hochgl,Tirol 2573m,,,,,,GPS,,,,Exact,47.3742,11.5717,+1:00
70,SOTA-Summits,OE/ST-001 Hochgo,Steierma 2862m,,,,,,GPS,,,,Exact,47.2664,13.7606,+1:00
70,SOTA-Summits,OE/TI-075 Hochgr,Tirol 2951m,,,,,,GPS,,,,Exact,46.8489,12.4214,+1:00
70,SOTA-Summits,OE/ST-515 Hochgr,Steierma 2120m,,,,,,GPS,,,,Exact,47.4605,14.2565,+1:00
70,SOTA-Summits,OE/TL-055 Hochgr,Tirol 1495m,,,,,,GPS,,,,Exact,47.5649,12.5357,+1:00
70,SOTA-Summits,OE/SB-420 Hochgr,Salzburg 1827m,,,,,,GPS,,,,Exact,47.3821,13.2731,+1:00
70,SOTA-Summits,OE/SB-408 Hochgs,Salzburg 2254m,,,,,,GPS,,,,Exact,47.5018,13.1147,+1:00
70,SOTA-Summits,OE/TI-957 Hochgw,Tirol 2365m,,,,,,GPS,,,,Exact,47.2814,10.5748,+1:00
70,SOTA-Summits,OE/ST-337 Hochha,Steierma 2363m,,,,,,GPS,,,,Exact,47.4697,14.3992,+1:00
70,SOTA-Summits,OE/TI-339 Hochis,Tirol 2299m,,,,,,GPS,,,,Exact,47.4586,11.7647,+1:00
70,SOTA-Summits,OE/OO-401 Hochjo,Oberoeste 1315m,,,,,,GPS,,,,Exact,47.7417,13.6239,+1:00
70,SOTA-Summits,OE/VB-153 Hochjo,Vorarlbe 2520m,,,,,,GPS,,,,Exact,47.0661,9.9881,+1:00
70,SOTA-Summits,OE/TL-025 Hochjo,Tirol 1823m,,,,,,GPS,,,,Exact,47.485,10.8058,+1:00
70,SOTA-Summits,OE/TI-856 Hochjo,Tirol 2896m,,,,,,GPS,,,,Exact,46.9483,10.6392,+1:00
70,SOTA-Summits,OE/NO-006 Hochka,Niederoes 1808m,,,,,,GPS,,,,Exact,47.7108,14.9012,+1:00
70,SOTA-Summits,OE/SB-410 Hochka,Salzburg 2219m,,,,,,GPS,,,,Exact,47.5191,13.3551,+1:00
70,SOTA-Summits,OE/TI-876 Hochka,Tirol 2836m,,,,,,GPS,,,,Exact,47.1108,10.3075,+1:00
70,SOTA-Summits,OE/SB-168 Hochka,Salzburg 2017m,,,,,,GPS,,,,Exact,47.3489,12.9511,+1:00
70,SOTA-Summits,OE/SB-360 Hochke,Salzburg 1782m,,,,,,GPS,,,,Exact,47.4017,13.1408,+1:00
70,SOTA-Summits,OE/OO-387 Hochke,Oberoeste 2454m,,,,,,GPS,,,,Exact,47.4825,13.5678,+1:00
70,SOTA-Summits,OE/NO-007 Hochko,Niederoes 1774m,,,,,,GPS,,,,Exact,47.7292,14.7772,+1:00
70,SOTA-Summits,OE/OO-343 Hochko,Oberoeste 1486m,,,,,,GPS,,,,Exact,47.8525,13.8517,+1:00
70,SOTA-Summits,OE/OO-358 Hochko,Oberoeste 1157m,,,,,,GPS,,,,Exact,47.7822,14.5017,+1:00
70,SOTA-Summits,OE/SB-358 Hochko,Salzburg 2249m,,,,,,GPS,,,,Exact,47.3275,12.615,+1:00
70,SOTA-Summits,OE/ST-088 Hochko,Steierma 2105m,,,,,,GPS,,,,Exact,47.5389,14.8156,+1:00
70,SOTA-Summits,OE/ST-379 Hochko,Steierma 794m,,,,,,GPS,,,,Exact,47.1036,15.1372,+1:00
70,SOTA-Summits,OE/ST-437 Hochko,Steierma 2091m,,,,,,GPS,,,,Exact,47.6951,13.9534,+1:00
70,SOTA-Summits,OE/SB-361 Hochko,Salzburg 1779m,,,,,,GPS,,,,Exact,47.0883,13.785,+1:00
70,SOTA-Summits,OE/SB-182 Hochkr,Salzburg 1953m,,,,,,GPS,,,,Exact,47.5236,12.79,+1:00
70,SOTA-Summits,OE/KT-027 Hochkr,Kaernten 2709m,,,,,,GPS,,,,Exact,46.815,13.0736,+1:00
70,SOTA-Summits,OE/TI-134 Hochkr,Tirol 2739m,,,,,,GPS,,,,Exact,46.8736,12.2756,+1:00
70,SOTA-Summits,OE/SB-007 Hochko,Salzburg 2941m,,,,,,GPS,,,,Exact,47.4203,13.0628,+1:00
70,SOTA-Summits,OE/TI-665 Hochko,Tirol 1539m,,,,,,GPS,,,,Exact,47.6911,12.3217,+1:00
70,SOTA-Summits,OE/VB-202 Hochku,Vorarlbe 2397m,,,,,,GPS,,,,Exact,47.2717,10.0306,+1:00
70,SOTA-Summits,OE/ST-183 Hochla,Steierma 1720m,,,,,,GPS,,,,Exact,47.3628,15.4244,+1:00
70,SOTA-Summits,OE/OO-440 Hochli,Oberoeste 917m,,,,,,GPS,,,,Exact,47.8392,13.8165,+1:00
70,SOTA-Summits,OE/VB-047 Hochma,Vorarlbe 2823m,,,,,,GPS,,,,Exact,46.9289,10.0286,+1:00
70,SOTA-Summits,OE/OO-429 Hochma,Oberoeste 739m,,,,,,GPS,,,,Exact,48.2492,14.9639,+1:00
70,SOTA-Summits,OE/TL-035 Hochmo,Tirol 1558m,,,,,,GPS,,,,Exact,47.3467,11.1467,+1:00
70,SOTA-Summits,OE/ST-389 Hochmo,Steierma 2336m,,,,,,GPS,,,,Exact,47.6342,14.1775,+1:00
70,SOTA-Summits,OE/TI-218 Hochni,Tirol 2547m,,,,,,GPS,,,,Exact,47.3672,11.6183,+1:00
70,SOTA-Summits,OE/TI-904 Hochno,Tirol 2754m,,,,,,GPS,,,,Exact,46.945,10.1667,+1:00
70,SOTA-Summits,OE/KT-078 Hochob,Kaernten 2139m,,,,,,GPS,,,,Exact,46.5058,14.4869,+1:00
70,SOTA-Summits,OE/KT-083 Hochpa,Kaernten 2099m,,,,,,GPS,,,,Exact,46.8511,13.5833,+1:00
70,SOTA-Summits,OE/TI-126 Hochpl,Tirol 2768m,,,,,,GPS,,,,Exact,47.3531,10.9883,+1:00
70,SOTA-Summits,OE/OO-283 Hochpl,Oberoeste 1134m,,,,,,GPS,,,,Exact,47.8219,13.4692,+1:00
70,SOTA-Summits,OE/ST-024 Hochre,Steierma 2416m,,,,,,GPS,,,,Exact,47.3633,14.6817,+1:00
70,SOTA-Summits,OE/TI-063 Hochre,Tirol 3010m,,,,,,GPS,,,,Exact,47.1706,10.9697,+1:00
70,SOTA-Summits,OE/NO-311 Hochre,Niederoes 835m,,,,,,GPS,,,,Exact,47.9492,15.1867,+1:00
70,SOTA-Summits,OE/ST-057 Hochre,Steierma 2220m,,,,,,GPS,,,,Exact,47.4247,14.2325,+1:00
70,SOTA-Summits,OE/NO-115 Hochri,Niederoes 882m,,,,,,GPS,,,,Exact,47.9931,15.9189,+1:00
70,SOTA-Summits,OE/VB-397 Hochro,Vorarlbe 1938m,,,,,,GPS,,,,Exact,47.2783,9.8283,+1:00
70,SOTA-Summits,OE/OO-063 Hochsa,Oberoeste 1405m,,,,,,GPS,,,,Exact,47.8792,13.9919,+1:00
70,SOTA-Summits,OE/ST-217 Hochsc,Steierma 1580m,,,,,,GPS,,,,Exact,47.4031,15.505,+1:00
70,SOTA-Summits,OE/TI-030 Hochsc,Tirol 3242m,,,,,,GPS,,,,Exact,46.9428,12.6981,+1:00
70,SOTA-Summits,OE/SB-407 Hochsc,Salzburg 2262m,,,,,,GPS,,,,Exact,47.5141,13.1251,+1:00
70,SOTA-Summits,OE/TI-357 Hochsc,Tirol 2247m,,,,,,GPS,,,,Exact,47.445,10.8419,+1:00
70,SOTA-Summits,OE/ST-040 Hochsc,Steierma 2277m,,,,,,GPS,,,,Exact,47.6183,15.1428,+1:00
70,SOTA-Summits,OE/ST-065 Hochsc,Steierma 2196m,,,,,,GPS,,,,Exact,47.4075,14.3389,+1:00
70,SOTA-Summits,OE/OO-215 Hochse,Oberoeste 1838m,,,,,,GPS,,,,Exact,47.7942,14.2469,+1:00
70,SOTA-Summits,OE/TI-200 Hochsp,Tirol 2581m,,,,,,GPS,,,,Exact,46.6575,12.6683,+1:00
70,SOTA-Summits,OE/KT-030 Hochst,Kaernten 2681m,,,,,,GPS,,,,Exact,46.76,12.8567,+1:00
70,SOTA-Summits,OE/NO-232 Hochst,Niederoes 1285m,,,,,,GPS,,,,Exact,47.8849,15.3219,+1:00
70,SOTA-Summits,OE/ST-131 Hochst,Steierma 1919m,,,,,,GPS,,,,Exact,47.6856,15.075,+1:00
70,SOTA-Summits,OE/NO-219 Hochst,Niederoes 1305m,,,,,,GPS,,,,Exact,47.9704,15.6901,+1:00
70,SOTA-Summits,OE/OO-374 Hochst,Oberoeste 904m,,,,,,GPS,,,,Exact,48.5992,13.875,+1:00
70,SOTA-Summits,OE/ST-068 Hochst,Steierma 2183m,,,,,,GPS,,,,Exact,47.4308,14.1875,+1:00
70,SOTA-Summits,OE/TI-879 Hochst,Tirol 2827m,,,,,,GPS,,,,Exact,46.8467,12.3833,+1:00
70,SOTA-Summits,OE/TI-901 Hochst,Tirol 2769m,,,,,,GPS,,,,Exact,47.1583,11.9983,+1:00
70,SOTA-Summits,OE/TI-789 Hochst,Tirol 3098m,,,,,,GPS,,,,Exact,46.9967,11.7117,+1:00
70,SOTA-Summits,OE/ST-029 Hochst,Steierma 2385m,,,,,,GPS,,,,Exact,47.2678,14.1122,+1:00
70,SOTA-Summits,OE/SB-423 Hochsa,Salzburg 1757m,,,,,,GPS,,,,Exact,47.5082,12.6694,+1:00
70,SOTA-Summits,OE/ST-159 Hochta,Steierma 1823m,,,,,,GPS,,,,Exact,47.5844,14.1567,+1:00
70,SOTA-Summits,OE/ST-031 Hochto,Steierma 2369m,,,,,,GPS,,,,Exact,47.5619,14.6328,+1:00
70,SOTA-Summits,OE/ST-576 Hochtr,Steierma 1118m,,,,,,GPS,,,,Exact,47.3458,15.1217,+1:00
70,SOTA-Summits,OE/KT-036 Hochtr,Kaernten 2536m,,,,,,GPS,,,,Exact,46.7953,13.1353,+1:00
70,SOTA-Summits,OE/ST-364 Hochtr,Steierma 1239m,,,,,,GPS,,,,Exact,47.2603,15.3697,+1:00
70,SOTA-Summits,OE/ST-092 Hochtu,Steierma 2081m,,,,,,GPS,,,,Exact,47.5339,15.0069,+1:00
70,SOTA-Summits,OE/ST-446 Hochtu,Steierma 1770m,,,,,,GPS,,,,Exact,47.6604,15.123,+1:00
70,SOTA-Summits,OE/TI-436 Hochun,Tirol 2075m,,,,,,GPS,,,,Exact,47.52,11.7361,+1:00
70,SOTA-Summits,OE/TI-697 Hochve,Tirol 3535m,,,,,,GPS,,,,Exact,46.8808,10.7942,+1:00
70,SOTA-Summits,OE/NO-325 Hochwa,Niederoes 920m,,,,,,GPS,,,,Exact,47.9344,15.9813,+1:00
70,SOTA-Summits,OE/NO-294 Hochwa,Niederoes 961m,,,,,,GPS,,,,Exact,48.0,15.2833,+1:00
70,SOTA-Summits,OE/TI-140 Hochwa,Tirol 2719m,,,,,,GPS,,,,Exact,47.3586,11.0156,+1:00
70,SOTA-Summits,OE/TI-589 Hochwa,Tirol 2744m,,,,,,GPS,,,,Exact,47.3958,11.055,+1:00
70,SOTA-Summits,OE/ST-490 Hochwa,Steierma 2301m,,,,,,GPS,,,,Exact,47.3117,14.1308,+1:00
70,SOTA-Summits,OE/KT-130 Hochwa,Kaernten 1688m,,,,,,GPS,,,,Exact,46.6633,13.2152,+1:00
70,SOTA-Summits,OE/ST-503 Hochwe,Steierma 2375m,,,,,,GPS,,,,Exact,47.3089,14.2004,+1:00
70,SOTA-Summits,OE/NO-011 Hochwe,Niederoes 1743m,,,,,,GPS,,,,Exact,47.5303,15.9136,+1:00
70,SOTA-Summits,OE/SB-412 Hochwi,Salzburg 2189m,,,,,,GPS,,,,Exact,47.5165,13.0996,+1:00
70,SOTA-Summits,OE/SB-424 Hochwi,Salzburg 1754m,,,,,,GPS,,,,Exact,47.6407,13.3164,+1:00
70,SOTA-Summits,OE/TI-706 Hochwi,Tirol 3480m,,,,,,GPS,,,,Exact,46.765,11.0225,+1:00
70,SOTA-Summits,OE/ST-002 Hochwi,Steierma 2747m,,,,,,GPS,,,,Exact,47.3347,13.8306,+1:00
70,SOTA-Summits,OE/KT-069 Hochwi,Kaernten 2195m,,,,,,GPS,,,,Exact,46.5947,13.1761,+1:00
70,SOTA-Summits,OE/ST-066 Hochzi,Steierma 2191m,,,,,,GPS,,,,Exact,47.5656,14.6661,+1:00
70,SOTA-Summits,OE/OO-444 Hochzo,Oberoeste 1373m,,,,,,GPS,,,,Exact,47.7745,14.5503,+1:00
70,SOTA-Summits,OE/VB-494 Hochae,Vorarlbe 1464m,,,,,,GPS,,,,Exact,47.4031,9.8128,+1:00
70,SOTA-Summits,OE/TL-040 Hofjoc,Tirol 1341m,,,,,,GPS,,,,Exact,47.5633,11.7017,+1:00
70,SOTA-Summits,OE/SB-428 Hofsch,Salzburg 1666m,,,,,,GPS,,,,Exact,47.4911,13.3416,+1:00
70,SOTA-Summits,OE/TI-755 Hohe F,Tirol 3243m,,,,,,GPS,,,,Exact,47.1417,12.3642,+1:00
70,SOTA-Summits,OE/TI-020 Hohe G,Tirol 3393m,,,,,,GPS,,,,Exact,47.0047,10.9086,+1:00
70,SOTA-Summits,OE/VB-465 Hohe K,Vorarlbe 1645m,,,,,,GPS,,,,Exact,47.3353,9.7158,+1:00
70,SOTA-Summits,OE/VB-531 Hohe K,Vorarlbe 2066m,,,,,,GPS,,,,Exact,47.1658,9.6233,+1:00
70,SOTA-Summits,OE/KT-024 Hohe L,Kaernten 2774m,,,,,,GPS,,,,Exact,46.9122,13.39,+1:00
70,SOTA-Summits,OE/ST-108 Hohe L,Steierma 2028m,,,,,,GPS,,,,Exact,47.4931,14.9036,+1:00
70,SOTA-Summits,OE/NO-094 Hohe M,Niederoes 967m,,,,,,GPS,,,,Exact,47.8953,16.0092,+1:00
70,SOTA-Summits,OE/TI-194 Hohe M,Tirol 2592m,,,,,,GPS,,,,Exact,47.3467,11.0819,+1:00
70,SOTA-Summits,OE/KT-334 Hohe P,Kaernten 2370m,,,,,,GPS,,,,Exact,46.9379,13.6922,+1:00
70,SOTA-Summits,OE/ST-549 Hohe R,Steierma 1398m,,,,,,GPS,,,,Exact,47.5939,13.8125,+1:00
70,SOTA-Summits,OE/ST-290 Hohe R,Steierma 1018m,,,,,,GPS,,,,Exact,47.1731,15.4006,+1:00
70,SOTA-Summits,OE/TI-517 Hohe S,Tirol 1828m,,,,,,GPS,,,,Exact,47.465,12.2044,+1:00
70,SOTA-Summits,OE/OO-041 Hohe S,Oberoeste 1659m,,,,,,GPS,,,,Exact,47.5628,13.5842,+1:00
70,SOTA-Summits,OE/OO-024 Hohe S,Oberoeste 1839m,,,,,,GPS,,,,Exact,47.7275,13.7114,+1:00
70,SOTA-Summits,OE/ST-450 Hohe S,Steierma 1638m,,,,,,GPS,,,,Exact,47.2315,14.9875,+1:00
70,SOTA-Summits,OE/ST-225 Hohe S,Steierma 1539m,,,,,,GPS,,,,Exact,47.7372,15.3944,+1:00
70,SOTA-Summits,OE/ST-192 Hohe T,Steierma 1681m,,,,,,GPS,,,,Exact,47.5192,14.2044,+1:00
70,SOTA-Summits,OE/ST-121 Hohe V,Steierma 1981m,,,,,,GPS,,,,Exact,47.6486,15.4058,+1:00
70,SOTA-Summits,OE/TI-801 Hohe V,Tirol 3087m,,,,,,GPS,,,,Exact,47.1067,11.1658,+1:00
70,SOTA-Summits,OE/TI-745 Hohe W,Tirol 3289m,,,,,,GPS,,,,Exact,47.0133,11.6275,+1:00
70,SOTA-Summits,OE/TI-927 Hohe W,Tirol 2687m,,,,,,GPS,,,,Exact,47.0625,11.5892,+1:00
70,SOTA-Summits,OE/TI-831 Hohe W,Tirol 3003m,,,,,,GPS,,,,Exact,47.165,10.9717,+1:00
70,SOTA-Summits,OE/ST-521 Hohe Z,Steierma 1897m,,,,,,GPS,,,,Exact,47.4833,14.9292,+1:00
70,SOTA-Summits,OE/OO-368 Hohena,Oberoeste 1062m,,,,,,GPS,,,,Exact,47.8442,13.7219,+1:00
70,SOTA-Summits,OE/SB-362 Hohenb,Salzburg 1581m,,,,,,GPS,,,,Exact,47.1189,13.7256,+1:00
70,SOTA-Summits,OE/NO-064 Hohens,Niederoes 1195m,,,,,,GPS,,,,Exact,47.9844,15.4986,+1:00
70,SOTA-Summits,OE/KT-119 Hohenw,Kaernten 1818m,,,,,,GPS,,,,Exact,46.9539,14.6853,+1:00
70,SOTA-Summits,OE/ST-032 Hohenw,Steierma 2363m,,,,,,GPS,,,,Exact,47.3294,14.2361,+1:00
70,SOTA-Summits,OE/OO-001 Hoher ,Oberoeste 2995m,,,,,,GPS,,,,Exact,47.475,13.6056,+1:00
70,SOTA-Summits,OE/TI-021 Hoher ,Tirol 3371m,,,,,,GPS,,,,Exact,47.0536,12.4064,+1:00
70,SOTA-Summits,OE/VB-380 Hoher ,Vorarlbe 1979m,,,,,,GPS,,,,Exact,47.1919,9.8336,+1:00
70,SOTA-Summits,OE/VB-371 Hoher ,Vorarlbe 2004m,,,,,,GPS,,,,Exact,47.3072,9.7778,+1:00
70,SOTA-Summits,OE/KT-190 Hoher ,Kaernten 1046m,,,,,,GPS,,,,Exact,46.6661,14.0953,+1:00
70,SOTA-Summits,OE/OO-002 Hoher ,Oberoeste 2794m,,,,,,GPS,,,,Exact,47.4817,13.6322,+1:00
70,SOTA-Summits,OE/TI-244 Hoher ,Tirol 2492m,,,,,,GPS,,,,Exact,47.3611,11.3561,+1:00
70,SOTA-Summits,OE/SB-033 Hoher ,Salzburg 2522m,,,,,,GPS,,,,Exact,47.5942,13.0669,+1:00
70,SOTA-Summits,OE/SB-374 Hoher ,Salzburg 2824m,,,,,,GPS,,,,Exact,47.1994,12.4496,+1:00
70,SOTA-Summits,OE/VB-277 Hoher ,Vorarlbe 2230m,,,,,,GPS,,,,Exact,47.3547,10.1003,+1:00
70,SOTA-Summits,OE/OO-366 Hoher ,Oberoeste 1090m,,,,,,GPS,,,,Exact,47.8522,13.6164,+1:00
70,SOTA-Summits,OE/OO-012 Hoher ,Oberoeste 2108m,,,,,,GPS,,,,Exact,47.5242,13.6919,+1:00
70,SOTA-Summits,OE/NO-123 Hoher ,Niederoes 834m,,,,,,GPS,,,,Exact,48.0072,16.1353,+1:00
70,SOTA-Summits,OE/TI-962 Hoher ,Tirol 2063m,,,,,,GPS,,,,Exact,47.418,12.5277,+1:00
70,SOTA-Summits,OE/OO-209 Hoher ,Oberoeste 1963m,,,,,,GPS,,,,Exact,47.7825,14.3231,+1:00
70,SOTA-Summits,OE/TL-038 Hoher ,Tirol 1497m,,,,,,GPS,,,,Exact,47.53,11.9392,+1:00
70,SOTA-Summits,OE/KT-404 Hoher ,Kaernten 3128m,,,,,,GPS,,,,Exact,46.9396,12.7864,+1:00
70,SOTA-Summits,OE/TI-811 Hoher ,Tirol 3064m,,,,,,GPS,,,,Exact,46.9158,12.7133,+1:00
70,SOTA-Summits,OE/OO-396 Hoher ,Oberoeste 1487m,,,,,,GPS,,,,Exact,47.6561,13.6889,+1:00
70,SOTA-Summits,OE/TI-032 Hoher ,Tirol 3231m,,,,,,GPS,,,,Exact,47.0814,11.7042,+1:00
70,SOTA-Summits,OE/TI-036 Hoher ,Tirol 3168m,,,,,,GPS,,,,Exact,47.1161,10.3711,+1:00
70,SOTA-Summits,OE/ST-579 Hoher ,Steierma 1094m,,,,,,GPS,,,,Exact,47.7225,14.9825,+1:00
70,SOTA-Summits,OE/OO-449 Hoher ,Oberoeste 1357m,,,,,,GPS,,,,Exact,47.6685,13.6736,+1:00
70,SOTA-Summits,OE/OO-019 Hoher ,Oberoeste 1975m,,,,,,GPS,,,,Exact,47.6026,13.6991,+1:00
70,SOTA-Summits,OE/VB-534 Hoher ,Vorarlbe 751m,,,,,,GPS,,,,Exact,47.2508,9.6333,+1:00
70,SOTA-Summits,OE/TI-756 Hoher ,Tirol 3235m,,,,,,GPS,,,,Exact,47.095,11.075,+1:00
70,SOTA-Summits,OE/KT-011 Hoher ,Kaernten 3112m,,,,,,GPS,,,,Exact,46.9958,12.8031,+1:00
70,SOTA-Summits,OE/KT-012 Hoher ,Kaernten 3106m,,,,,,GPS,,,,Exact,47.0539,12.9572,+1:00
70,SOTA-Summits,OE/TI-840 Hoher ,Tirol 2975m,,,,,,GPS,,,,Exact,46.9808,11.0417,+1:00
70,SOTA-Summits,OE/SB-364 Hoher ,Salzburg 3368m,,,,,,GPS,,,,Exact,47.18,12.7588,+1:00
70,SOTA-Summits,OE/OO-354 Hoher ,Oberoeste 1237m,,,,,,GPS,,,,Exact,47.8542,14.3028,+1:00
70,SOTA-Summits,OE/KT-066 Hoher ,Kaernten 2199m,,,,,,GPS,,,,Exact,46.5972,13.0611,+1:00
70,SOTA-Summits,OE/NO-286 Hoher ,Niederoes 1276m,,,,,,GPS,,,,Exact,47.8272,15.4428,+1:00
70,SOTA-Summits,OE/SB-220 Hoher ,Salzburg 1764m,,,,,,GPS,,,,Exact,47.6703,13.3481,+1:00
70,SOTA-Summits,OE/TI-894 Hohes ,Tirol 2784m,,,,,,GPS,,,,Exact,46.8317,12.4308,+1:00
70,SOTA-Summits,OE/OO-150 Hohes ,Oberoeste 2837m,,,,,,GPS,,,,Exact,47.4883,13.6039,+1:00
70,SOTA-Summits,OE/TI-737 Hohes ,Tirol 3159m,,,,,,GPS,,,,Exact,47.0076,12.2254,+1:00
70,SOTA-Summits,OE/TI-160 Hohes ,Tirol 2651m,,,,,,GPS,,,,Exact,47.28,10.2761,+1:00
70,SOTA-Summits,OE/VB-021 Hohes ,Vorarlbe 2934m,,,,,,GPS,,,,Exact,46.8928,10.1117,+1:00
70,SOTA-Summits,OE/ST-385 Hohes ,Steierma 2575m,,,,,,GPS,,,,Exact,47.3233,13.8386,+1:00
70,SOTA-Summits,OE/ST-200 Hohes ,Steierma 1647m,,,,,,GPS,,,,Exact,47.7353,15.5539,+1:00
70,SOTA-Summits,OM/KE-024 Hola,Kosicky 1267m,,,,,,GPS,,,,Exact,48.7936,20.5324,+1:00
70,SOTA-Summits,OM/TN-015 Holazn,Trencian 911m,,,,,,GPS,,,,Exact,48.9291,18.2842,+1:00
70,SOTA-Summits,OE/VB-349 Holenk,Vorarlbe 2044m,,,,,,GPS,,,,Exact,47.3314,9.9278,+1:00
70,SOTA-Summits,OM/PO-067 Holica,Presovsk 828m,,,,,,GPS,,,,Exact,49.4081,20.4466,+1:00
70,SOTA-Summits,OM/ZA-065 Holica,Zilinsky 1086m,,,,,,GPS,,,,Exact,49.171,19.359,+1:00
70,SOTA-Summits,OM/KE-035 Holick,Kosicky 727m,,,,,,GPS,,,,Exact,48.7123,21.083,+1:00
70,SOTA-Summits,OE/TI-201 Hollbr,Tirol 2580m,,,,,,GPS,,,,Exact,46.6992,12.4269,+1:00
70,SOTA-Summits,OE/NO-308 Holzer,Niederoes 867m,,,,,,GPS,,,,Exact,47.9583,15.3142,+1:00
70,SOTA-Summits,OM/TN-003 Homolk,Trencian 1073m,,,,,,GPS,,,,Exact,48.9568,18.6008,+1:00
70,SOTA-Summits,OM/ZA-082 Homolk,Zilinsky 1659m,,,,,,GPS,,,,Exact,48.9094,19.8627,+1:00
70,SOTA-Summits,OM/ZA-075 Horeno,Zilinsky 892m,,,,,,GPS,,,,Exact,48.7866,18.7848,+1:00
70,SOTA-Summits,OE/TI-938 Hornsp,Tirol 2650m,,,,,,GPS,,,,Exact,47.1025,11.6358,+1:00
70,SOTA-Summits,OM/KE-033 Horny ,Kosicky 831m,,,,,,GPS,,,,Exact,48.6259,20.7842,+1:00
70,SOTA-Summits,OM/BB-019 Hradis,Banskoby 958m,,,,,,GPS,,,,Exact,48.8293,19.2975,+1:00
70,SOTA-Summits,OM/ZA-117 Hradis,Zilinsky 600m,,,,,,GPS,,,,Exact,49.1767,18.5326,+1:00
70,SOTA-Summits,OM/BB-024 Hradov,Banskoby 887m,,,,,,GPS,,,,Exact,48.6819,19.9237,+1:00
70,SOTA-Summits,OM/PO-090 Hrb,Presovsk 400m,,,,,,GPS,,,,Exact,48.9775,21.78,+1:00
70,SOTA-Summits,OM/ZA-061 Hruba ,Zilinsky 1131m,,,,,,GPS,,,,Exact,49.4874,19.2315,+1:00
70,SOTA-Summits,OM/ZA-070 Hruba ,Zilinsky 1037m,,,,,,GPS,,,,Exact,48.9839,18.5132,+1:00
70,SOTA-Summits,OM/PO-009 Hruby ,Presovsk 2428m,,,,,,GPS,,,,Exact,49.1708,20.0267,+1:00
70,SOTA-Summits,OM/ZA-047 Hrcova,Zilinsky 1226m,,,,,,GPS,,,,Exact,49.2449,19.1872,+1:00
70,SOTA-Summits,OE/NO-317 Hubber,Niederoes 765m,,,,,,GPS,,,,Exact,47.9675,14.8992,+1:00
70,SOTA-Summits,OM/PO-089 Humens,Presovsk 444m,,,,,,GPS,,,,Exact,48.9113,21.948,+1:00
70,SOTA-Summits,OE/NO-180 Hundsh,Niederoes 480m,,,,,,GPS,,,,Exact,48.1319,16.9392,+1:00
70,SOTA-Summits,OE/SB-313 Hundsh,Salzburg 2482m,,,,,,GPS,,,,Exact,47.4769,12.71,+1:00
70,SOTA-Summits,OE/OO-357 Hundsk,Oberoeste 1167m,,,,,,GPS,,,,Exact,47.7701,14.0456,+1:00
70,SOTA-Summits,OE/TI-804 Hundst,Tirol 3080m,,,,,,GPS,,,,Exact,47.0325,10.8933,+1:00
70,SOTA-Summits,OE/SB-142 Hundst,Salzburg 2117m,,,,,,GPS,,,,Exact,47.3383,12.9125,+1:00
70,SOTA-Summits,OE/NO-225 Hutber,Niederoes 1170m,,,,,,GPS,,,,Exact,47.8214,15.8006,+1:00
70,SOTA-Summits,OE/NO-259 Hutber,Niederoes 971m,,,,,,GPS,,,,Exact,47.8094,15.9537,+1:00
70,SOTA-Summits,OE/NO-110 Hutwis,Niederoes 896m,,,,,,GPS,,,,Exact,47.4631,16.2219,+1:00
70,SOTA-Summits,OE/VB-342 Haehle,Vorarlbe 2058m,,,,,,GPS,,,,Exact,47.3467,10.0706,+1:00
70,SOTA-Summits,OM/BB-055 Horka,Banskoby 951m,,,,,,GPS,,,,Exact,48.8277,20.0595,+1:00
70,SOTA-Summits,OE/ST-334 Hoechs,Steierma 2543m,,,,,,GPS,,,,Exact,47.3467,13.7911,+1:00
70,SOTA-Summits,OE/OO-250 Hoehbu,Oberoeste 1473m,,,,,,GPS,,,,Exact,47.5531,13.4842,+1:00
70,SOTA-Summits,OE/TI-868 Hoehe ,Tirol 2855m,,,,,,GPS,,,,Exact,47.125,11.1708,+1:00
70,SOTA-Summits,OE/NO-249 Hoehen,Niederoes 1027m,,,,,,GPS,,,,Exact,47.9961,15.7636,+1:00
70,SOTA-Summits,OE/OO-400 Hoehen,Oberoeste 1320m,,,,,,GPS,,,,Exact,47.8108,14.5392,+1:00
70,SOTA-Summits,OE/OO-421 Hoehen,Oberoeste 875m,,,,,,GPS,,,,Exact,47.9208,14.5575,+1:00
70,SOTA-Summits,OE/OO-398 Hoeher,Oberoeste 1388m,,,,,,GPS,,,,Exact,47.6764,13.7103,+1:00
70,SOTA-Summits,OE/KT-347 Hoelle,Kaernten 1772m,,,,,,GPS,,,,Exact,46.8308,13.8904,+1:00
70,SOTA-Summits,OE/NO-149 Hoelle,Niederoes 645m,,,,,,GPS,,,,Exact,48.0975,16.1833,+1:00
70,SOTA-Summits,OE/SB-405 Hoellw,Salzburg 2287m,,,,,,GPS,,,,Exact,47.2826,13.1639,+1:00
70,SOTA-Summits,OE/ST-215 Hoelzl,Steierma 1589m,,,,,,GPS,,,,Exact,47.25,14.6714,+1:00
70,SOTA-Summits,OE/OO-435 Hoerla,Oberoeste 902m,,,,,,GPS,,,,Exact,47.8506,13.9792,+1:00
70,SOTA-Summits,OE/TI-836 Hoernd,Tirol 2985m,,,,,,GPS,,,,Exact,47.0942,10.9942,+1:00
70,SOTA-Summits,OE/KT-148 Huehne,Kaernten 1522m,,,,,,GPS,,,,Exact,46.645,15.0297,+1:00
70,SOTA-Summits,OE/OO-249 Huehne,Oberoeste 1474m,,,,,,GPS,,,,Exact,47.8264,14.5831,+1:00
70,SOTA-Summits,OE/SB-404 Huehne,Salzburg 2288m,,,,,,GPS,,,,Exact,47.5012,13.0888,+1:00
70,SOTA-Summits,OE/KT-359 Huehne,Kaernten 1508m,,,,,,GPS,,,,Exact,46.6991,13.2707,+1:00
70,SOTA-Summits,OM/ZA-062 Hyrova,Zilinsky 1099m,,,,,,GPS,,,,Exact,49.0473,19.2793,+1:00
70,SOTA-Summits,OE/TI-752 III Ho,Tirol 3254m,,,,,,GPS,,,,Exact,47.0025,11.845,+1:00
70,SOTA-Summits,OE/ST-540 Ilgner,Steierma 1506m,,,,,,GPS,,,,Exact,47.5525,15.1867,+1:00
70,SOTA-Summits,OE/ST-457 Ilgner,Steierma 1512m,,,,,,GPS,,,,Exact,47.544,15.1381,+1:00
70,SOTA-Summits,OE/TI-924 Ilmspi,Tirol 2692m,,,,,,GPS,,,,Exact,47.0567,11.33,+1:00
70,SOTA-Summits,OE/OO-403 Imitzb,Oberoeste 1303m,,,,,,GPS,,,,Exact,47.6953,14.3944,+1:00
70,SOTA-Summits,OE/TI-732 Innere,Tirol 3367m,,,,,,GPS,,,,Exact,46.9242,10.9217,+1:00
70,SOTA-Summits,OE/TI-816 Innere,Tirol 3053m,,,,,,GPS,,,,Exact,46.9967,11.2467,+1:00
70,SOTA-Summits,OE/TI-885 Innere,Tirol 2734m,,,,,,GPS,,,,Exact,47.0208,10.9494,+1:00
70,SOTA-Summits,OM/TN-004 Inovec,Trencian 1042m,,,,,,GPS,,,,Exact,48.7748,18.0412,+1:00
70,SOTA-Summits,OE/SB-293 Irrsbe,Salzburg 844m,,,,,,GPS,,,,Exact,47.9567,13.2739,+1:00
70,SOTA-Summits,OE/VB-330 Itonsk,Vorarlbe 2088m,,,,,,GPS,,,,Exact,47.1164,9.9333,+1:00
70,SOTA-Summits,OE/ST-388 Jacker,Steierma 2409m,,,,,,GPS,,,,Exact,47.2992,13.9039,+1:00
70,SOTA-Summits,OE/ST-577 Jaeger,Steierma 1014m,,,,,,GPS,,,,Exact,47.6842,14.9808,+1:00
70,SOTA-Summits,OE/TI-692 Jagdha,Tirol 3165m,,,,,,GPS,,,,Exact,47.0094,12.1633,+1:00
70,SOTA-Summits,OE/SB-384 Jagges,Salzburg 2570m,,,,,,GPS,,,,Exact,47.206,12.6447,+1:00
70,SOTA-Summits,OE/OO-320 Jainze,Oberoeste 834m,,,,,,GPS,,,,Exact,47.7208,13.6244,+1:00
70,SOTA-Summits,OM/ZA-002 Jakubi,Zilinsky 2194m,,,,,,GPS,,,,Exact,49.1931,19.801,+1:00
70,SOTA-Summits,OM/BB-014 Jaseni,Banskoby 995m,,,,,,GPS,,,,Exact,48.5472,19.7335,+1:00
70,SOTA-Summits,OM/KE-030 Jaseno,Kosicky 894m,,,,,,GPS,,,,Exact,48.8708,22.2521,+1:00
70,SOTA-Summits,OM/BB-064 Jastra,Banskoby 683m,,,,,,GPS,,,,Exact,48.6398,18.9164,+1:00
70,SOTA-Summits,OE/NO-096 Jauerl,Niederoes 960m,,,,,,GPS,,,,Exact,48.3394,15.3383,+1:00
70,SOTA-Summits,OE/KT-395 Jauern,Kaernten 1690m,,,,,,GPS,,,,Exact,46.4992,14.3798,+1:00
70,SOTA-Summits,OM/BB-011 Javori,Banskoby 1044m,,,,,,GPS,,,,Exact,48.4416,19.29,+1:00
70,SOTA-Summits,OM/PO-040 Javori,Presovsk 881m,,,,,,GPS,,,,Exact,49.4473,21.2637,+1:00
70,SOTA-Summits,OM/TN-007 Javori,Trencian 1010m,,,,,,GPS,,,,Exact,48.9694,18.4305,+1:00
70,SOTA-Summits,OM/PO-026 Javori,Presovsk 1074m,,,,,,GPS,,,,Exact,49.1325,20.7537,+1:00
70,SOTA-Summits,OM/TN-017 Javori,Trencian 892m,,,,,,GPS,,,,Exact,48.9344,18.4477,+1:00
70,SOTA-Summits,OM/TT-003 Javoro,Trnavsky 480m,,,,,,GPS,,,,Exact,48.554,17.4132,+1:00
70,SOTA-Summits,OM/ZA-107 Javors,Zilinsky 860m,,,,,,GPS,,,,Exact,49.4524,18.8634,+1:00
70,SOTA-Summits,OM/PO-051 Jedlin,Presovsk 620m,,,,,,GPS,,,,Exact,49.3476,21.3077,+1:00
70,SOTA-Summits,OE/SB-413 Jedlko,Salzburg 2176m,,,,,,GPS,,,,Exact,47.2076,13.0519,+1:00
70,SOTA-Summits,OE/KT-171 Jegart,Kaernten 1263m,,,,,,GPS,,,,Exact,46.5228,14.6172,+1:00
70,SOTA-Summits,OM/BB-045 Jelens,Banskoby 1153m,,,,,,GPS,,,,Exact,48.8291,19.1584,+1:00
70,SOTA-Summits,OE/NO-057 Jochar,Niederoes 1266m,,,,,,GPS,,,,Exact,47.9122,15.7119,+1:00
70,SOTA-Summits,OE/TI-780 Jochko,Tirol 3143m,,,,,,GPS,,,,Exact,46.9267,11.1083,+1:00
70,SOTA-Summits,OE/KT-002 Johann,Kaernten 3453m,,,,,,GPS,,,,Exact,47.1092,12.6731,+1:00
70,SOTA-Summits,OE/TI-672 Juffin,Tirol 1181m,,,,,,GPS,,,,Exact,47.4947,12.1392,+1:00
70,SOTA-Summits,OE/TI-466 Juifen,Tirol 1988m,,,,,,GPS,,,,Exact,47.5433,11.6258,+1:00
70,SOTA-Summits,OE/KT-111 Jukbic,Kaernten 1889m,,,,,,GPS,,,,Exact,46.7086,13.0086,+1:00
70,SOTA-Summits,OE/SB-445 Jaeger,Salzburg 1292m,,,,,,GPS,,,,Exact,47.4261,13.1883,+1:00
70,SOTA-Summits,OE/KT-118 Kabesn,Kaernten 1820m,,,,,,GPS,,,,Exact,46.6486,13.6008,+1:00
70,SOTA-Summits,OE/ST-545 Kaemme,Steierma 1435m,,,,,,GPS,,,,Exact,47.1817,14.2567,+1:00
70,SOTA-Summits,OE/KT-274 Kaiser,Kaernten 835m,,,,,,GPS,,,,Exact,46.6817,14.5289,+1:00
70,SOTA-Summits,OE/ST-091 Kaiser,Steierma 2084m,,,,,,GPS,,,,Exact,47.5386,14.8281,+1:00
70,SOTA-Summits,OE/OO-422 Kalbli,Oberoeste 846m,,,,,,GPS,,,,Exact,47.8378,14.4789,+1:00
70,SOTA-Summits,OE/ST-453 Kalkbe,Steierma 1591m,,,,,,GPS,,,,Exact,47.0808,14.3425,+1:00
70,SOTA-Summits,OE/SB-396 Kalkbr,Salzburg 2412m,,,,,,GPS,,,,Exact,47.12,13.0301,+1:00
70,SOTA-Summits,OE/TI-563 Kalkst,Tirol 1506m,,,,,,GPS,,,,Exact,47.5308,12.4844,+1:00
70,SOTA-Summits,OE/TI-880 Kalkwa,Tirol 2826m,,,,,,GPS,,,,Exact,47.1542,11.6617,+1:00
70,SOTA-Summits,OE/NO-051 Kalten,Niederoes 1302m,,,,,,GPS,,,,Exact,47.6575,15.7642,+1:00
70,SOTA-Summits,OE/VB-024 Kalten,Vorarlbe 2896m,,,,,,GPS,,,,Exact,47.0864,10.1389,+1:00
70,SOTA-Summits,OE/ST-520 Kaltma,Steierma 1929m,,,,,,GPS,,,,Exact,47.5992,14.8742,+1:00
70,SOTA-Summits,OE/TI-911 Kaltwa,Tirol 2733m,,,,,,GPS,,,,Exact,47.4025,11.4508,+1:00
70,SOTA-Summits,OM/ZA-101 Kamenn,Zilinsky 938m,,,,,,GPS,,,,Exact,49.3734,19.3025,+1:00
70,SOTA-Summits,OE/KT-308 Kammsp,Kaernten 2757m,,,,,,GPS,,,,Exact,46.9851,13.0741,+1:00
70,SOTA-Summits,OE/ST-080 Kammsp,Steierma 2139m,,,,,,GPS,,,,Exact,47.4761,13.8847,+1:00
70,SOTA-Summits,OE/ST-190 Kampl,Steierma 1685m,,,,,,GPS,,,,Exact,47.5889,13.8769,+1:00
70,SOTA-Summits,OE/ST-440 Kampl,Steierma 1990m,,,,,,GPS,,,,Exact,47.6058,15.2148,+1:00
70,SOTA-Summits,OE/KT-389 Kampln,Kaernten 2101m,,,,,,GPS,,,,Exact,46.8512,13.6122,+1:00
70,SOTA-Summits,OE/ST-428 Kampsp,Steierma 2390m,,,,,,GPS,,,,Exact,47.2939,13.6423,+1:00
70,SOTA-Summits,OE/SB-300 Kapuzi,Salzburg 636m,,,,,,GPS,,,,Exact,47.8053,13.0581,+1:00
70,SOTA-Summits,OE/ST-449 Karcha,Steierma 1658m,,,,,,GPS,,,,Exact,47.0921,14.2617,+1:00
70,SOTA-Summits,OE/KT-330 Kareck,Kaernten 2481m,,,,,,GPS,,,,Exact,47.0589,13.5538,+1:00
70,SOTA-Summits,OE/VB-190 Karhor,Vorarlbe 2416m,,,,,,GPS,,,,Exact,47.2481,10.1514,+1:00
70,SOTA-Summits,OE/OO-392 Karkog,Oberoeste 1739m,,,,,,GPS,,,,Exact,47.7172,13.7642,+1:00
70,SOTA-Summits,OE/OO-240 Karlec,Oberoeste 1582m,,,,,,GPS,,,,Exact,47.6311,14.375,+1:00
70,SOTA-Summits,OE/TI-710 Karles,Tirol 3462m,,,,,,GPS,,,,Exact,46.7725,10.975,+1:00
70,SOTA-Summits,OE/ST-089 Karlho,Steierma 2096m,,,,,,GPS,,,,Exact,47.6072,15.1583,+1:00
70,SOTA-Summits,OE/TI-491 Karste,Tirol 1922m,,,,,,GPS,,,,Exact,47.4553,12.4872,+1:00
70,SOTA-Summits,OE/OO-031 Kasber,Oberoeste 1747m,,,,,,GPS,,,,Exact,47.8017,13.9983,+1:00
70,SOTA-Summits,OE/SB-340 Kasere,Salzburg 2740m,,,,,,GPS,,,,Exact,47.2375,13.7708,+1:00
70,SOTA-Summits,OE/KT-212 Kaspar,Kaernten 841m,,,,,,GPS,,,,Exact,46.6769,14.8692,+1:00
70,SOTA-Summits,OE/KT-304 Kasten,Kaernten 2831m,,,,,,GPS,,,,Exact,47.026,12.7164,+1:00
70,SOTA-Summits,OE/ST-372 Katerl,Steierma 1088m,,,,,,GPS,,,,Exact,47.2528,15.5439,+1:00
70,SOTA-Summits,OE/NO-063 Kathar,Niederoes 1222m,,,,,,GPS,,,,Exact,47.8331,15.9217,+1:00
70,SOTA-Summits,OM/ZA-106 Kazick,Zilinsky 910m,,,,,,GPS,,,,Exact,49.3372,18.6756,+1:00
70,SOTA-Summits,OM/PO-073 Kacalo,Presovsk 676m,,,,,,GPS,,,,Exact,49.3225,21.3668,+1:00
70,SOTA-Summits,OM/PO-075 Kastie,Presovsk 647m,,,,,,GPS,,,,Exact,49.3869,21.4136,+1:00
70,SOTA-Summits,OE/TI-768 Keeseg,Tirol 3173m,,,,,,GPS,,,,Exact,46.9692,12.2417,+1:00
70,SOTA-Summits,OE/KT-300 Keesko,Kaernten 2886m,,,,,,GPS,,,,Exact,47.0953,13.2772,+1:00
70,SOTA-Summits,OE/SB-002 Keesko,Salzburg 3291m,,,,,,GPS,,,,Exact,47.1364,12.3122,+1:00
70,SOTA-Summits,OE/OO-369 Kefers,Oberoeste 1061m,,,,,,GPS,,,,Exact,47.7933,14.1433,+1:00
70,SOTA-Summits,OE/KT-123 Kegel,Kaernten 1745m,,,,,,GPS,,,,Exact,46.8625,13.9867,+1:00
70,SOTA-Summits,OE/ST-035 Kegele,Steierma 2323m,,,,,,GPS,,,,Exact,47.3011,14.2128,+1:00
70,SOTA-Summits,OE/KT-350 Kehllu,Kaernten 2635m,,,,,,GPS,,,,Exact,46.885,13.1569,+1:00
70,SOTA-Summits,OE/TI-793 Keilba,Tirol 3094m,,,,,,GPS,,,,Exact,47.0333,11.9475,+1:00
70,SOTA-Summits,OE/KT-267 Keller,Kaernten 1167m,,,,,,GPS,,,,Exact,46.6589,13.6922,+1:00
70,SOTA-Summits,OE/TI-311 Keller,Tirol 2344m,,,,,,GPS,,,,Exact,47.3178,11.7681,+1:00
70,SOTA-Summits,OE/TI-918 Keller,Tirol 2722m,,,,,,GPS,,,,Exact,47.0683,11.8292,+1:00
70,SOTA-Summits,OE/KT-406 Keller,Kaernten 2774m,,,,,,GPS,,,,Exact,46.6092,12.9003,+1:00
70,SOTA-Summits,OE/TL-021 Kelmer,Tirol 2000m,,,,,,GPS,,,,Exact,47.3792,10.6892,+1:00
70,SOTA-Summits,OE/TI-249 Kemach,Tirol 2480m,,,,,,GPS,,,,Exact,47.3128,11.3669,+1:00
70,SOTA-Summits,OE/OO-436 Kempfe,Oberoeste 729m,,,,,,GPS,,,,Exact,48.4079,14.5157,+1:00
70,SOTA-Summits,OE/TI-802 Kendls,Tirol 3085m,,,,,,GPS,,,,Exact,47.0383,12.5933,+1:00
70,SOTA-Summits,OE/TI-096 Kerrac,Tirol 2918m,,,,,,GPS,,,,Exact,47.0817,11.2167,+1:00
70,SOTA-Summits,OE/NO-274 Kersch,Niederoes 739m,,,,,,GPS,,,,Exact,48.0202,15.0581,+1:00
70,SOTA-Summits,OE/ST-054 Kersch,Steierma 2225m,,,,,,GPS,,,,Exact,47.3878,14.6139,+1:00
70,SOTA-Summits,OE/ST-414 Kerzen,Steierma 1246m,,,,,,GPS,,,,Exact,47.6901,14.7433,+1:00
70,SOTA-Summits,OE/TI-136 Kessel,Tirol 2728m,,,,,,GPS,,,,Exact,47.1008,11.3647,+1:00
70,SOTA-Summits,OE/ST-491 Ketten,Steierma 2152m,,,,,,GPS,,,,Exact,47.3783,14.5958,+1:00
70,SOTA-Summits,OM/ZA-077 Kecka,Zilinsky 822m,,,,,,GPS,,,,Exact,49.1628,18.6125,+1:00
70,SOTA-Summits,OM/ZA-060 Kecky,Zilinsky 1139m,,,,,,GPS,,,,Exact,49.1258,19.2427,+1:00
70,SOTA-Summits,OE/OO-437 Kienas,Oberoeste 747m,,,,,,GPS,,,,Exact,48.3216,14.7329,+1:00
70,SOTA-Summits,OE/NO-148 Kienbe,Niederoes 650m,,,,,,GPS,,,,Exact,47.8042,16.0575,+1:00
70,SOTA-Summits,OE/NO-252 Kienbe,Niederoes 1015m,,,,,,GPS,,,,Exact,47.7808,15.9461,+1:00
70,SOTA-Summits,OE/OO-384 Kienbe,Oberoeste 801m,,,,,,GPS,,,,Exact,47.8589,14.1789,+1:00
70,SOTA-Summits,OE/TL-028 Kienbe,Tirol 1786m,,,,,,GPS,,,,Exact,47.5158,11.9492,+1:00
70,SOTA-Summits,OE/TL-057 Kienbe,Tirol 1101m,,,,,,GPS,,,,Exact,47.6901,12.1925,+1:00
70,SOTA-Summits,OE/NO-071 Kienec,Niederoes 1106m,,,,,,GPS,,,,Exact,47.9608,15.8739,+1:00
70,SOTA-Summits,OE/OO-308 Kienes,Oberoeste 894m,,,,,,GPS,,,,Exact,47.8833,13.62,+1:00
70,SOTA-Summits,OE/ST-025 Kilnpr,Steierma 2408m,,,,,,GPS,,,,Exact,46.9858,13.8431,+1:00
70,SOTA-Summits,OE/KT-398 Kilzer,Kaernten 1330m,,,,,,GPS,,,,Exact,46.6205,13.6349,+1:00
70,SOTA-Summits,OE/TI-545 Kirchb,Tirol 1678m,,,,,,GPS,,,,Exact,47.5378,12.5353,+1:00
70,SOTA-Summits,OE/TI-481 Kirchb,Tirol 1943m,,,,,,GPS,,,,Exact,47.2811,11.3022,+1:00
70,SOTA-Summits,OE/TI-101 Kirchd,Tirol 2840m,,,,,,GPS,,,,Exact,47.0672,11.3419,+1:00
70,SOTA-Summits,OE/NO-106 Kirche,Niederoes 924m,,,,,,GPS,,,,Exact,48.0194,15.7539,+1:00
70,SOTA-Summits,OE/TI-760 Kirche,Tirol 3113m,,,,,,GPS,,,,Exact,46.8992,11.0814,+1:00
70,SOTA-Summits,OE/TI-461 Kitzbu,Tirol 1996m,,,,,,GPS,,,,Exact,47.4761,12.4303,+1:00
70,SOTA-Summits,OE/KT-402 Kitzel,Kaernten 686m,,,,,,GPS,,,,Exact,46.5972,14.5619,+1:00
70,SOTA-Summits,OE/SB-003 Kitzst,Salzburg 3209m,,,,,,GPS,,,,Exact,47.1881,12.6875,+1:00
70,SOTA-Summits,OE/KT-282 Klamme,Kaernten 3155m,,,,,,GPS,,,,Exact,46.9594,12.7618,+1:00
70,SOTA-Summits,OE/ST-471 Klammk,Steierma 1358m,,,,,,GPS,,,,Exact,47.4738,15.0005,+1:00
70,SOTA-Summits,OM/TN-024 Klapa,Trencian 654m,,,,,,GPS,,,,Exact,49.162,18.4247,+1:00
70,SOTA-Summits,OE/NO-280 Klausb,Niederoes 571m,,,,,,GPS,,,,Exact,48.2777,15.42,+1:00
70,SOTA-Summits,OE/NO-299 Klausb,Niederoes 914m,,,,,,GPS,,,,Exact,47.9558,15.2375,+1:00
70,SOTA-Summits,OE/VB-533 Klausb,Vorarlbe 961m,,,,,,GPS,,,,Exact,47.3933,9.8658,+1:00
70,SOTA-Summits,OE/TI-906 Kleinb,Tirol 2751m,,,,,,GPS,,,,Exact,47.2025,10.4958,+1:00
70,SOTA-Summits,OE/ST-565 Kleine,Steierma 1248m,,,,,,GPS,,,,Exact,47.7369,15.153,+1:00
